[
  {
    "address": "Cottonwood AZ 86326",
    "name": "A Center for Creative Education",
    "parentVueUrl": "https://az-acce.edupoint.com/",
    "latitude": 34.7391876,
    "longitude": -112.0098791
  },
  {
    "address": "Clinton Township MI 48035",
    "name": "ATS Educational Consulting dba My Virtual Academy",
    "parentVueUrl": "https://mi-atsec.edupoint.com/",
    "latitude": 42.5573163,
    "longitude": -82.9178838
  },
  {
    "address": "Tucson AZ 85745",
    "name": "AZ Schools for the Deaf and Blind",
    "parentVueUrl": "https://az-asdb.edupoint.com",
    "latitude": 32.2708701,
    "longitude": -111.0698858
  },
  {
    "address": "Phoenix AZ 85028",
    "name": "Accelerated Learning Center",
    "parentVueUrl": "https://az-alc.edupoint.com/",
    "latitude": 33.5725815,
    "longitude": -112.0118669
  },
  {
    "address": "Ada MN 56510",
    "name": "Ada-Borup-West School District",
    "parentVueUrl": "https://rt2.region1.k12.mn.us/rt2910",
    "latitude": 47.299689,
    "longitude": -96.51534629999999
  },
  {
    "address": "Adrian OR 97901",
    "name": "Adrian School District",
    "parentVueUrl": "https://or-asd.edupoint.com/",
    "latitude": 43.7407155,
    "longitude": -117.0718261
  },
  {
    "address": "Avondale AZ 85323",
    "name": "Agua Fria Union High School District",
    "parentVueUrl": "https://afsd.edupoint.com",
    "latitude": 33.4334649,
    "longitude": -112.3278161
  },
  {
    "address": "Aguila AZ 85320",
    "name": "Aguila Elementary School District #63",
    "parentVueUrl": "https://az-aesd63.edupoint.com/",
    "latitude": 33.9428069,
    "longitude": -113.1740805
  },
  {
    "address": "Alamo TN 38001",
    "name": "Alamo City School",
    "parentVueUrl": "HTTPS://sis-psvue1.tnk12.gov/ALCS",
    "latitude": 35.7847949,
    "longitude": -89.1172883
  },
  {
    "address": "Alamogordo NM 88310",
    "name": "Alamogordo Public Schools",
    "parentVueUrl": "https://synergypvue.aps4kids.org",
    "latitude": 32.8995325,
    "longitude": -105.960265
  },
  {
    "address": "Albert Lea MN 56007",
    "name": "Albert Lea Area Schools",
    "parentVueUrl": "https://rt3.region1.k12.mn.us/rt0241",
    "latitude": 43.6478006,
    "longitude": -93.3686555
  },
  {
    "address": "East Albuquerque NM 87110",
    "name": "Albuquerque Public Schools",
    "parentVueUrl": "https://mystudentlogin.aps.edu",
    "latitude": 35.1009909,
    "longitude": -106.5701927
  },
  {
    "address": "Lincoln MI 48742",
    "name": "Alcona Community Schools",
    "parentVueUrl": "https://studentvue.geneseeisd.org/acs/",
    "latitude": 44.6847352,
    "longitude": -83.4121935
  },
  {
    "address": "Alexandria MN 56308",
    "name": "Alexandria School District 206",
    "parentVueUrl": "https://rt4.region1.k12.mn.us/rt0206",
    "latitude": 45.8166584,
    "longitude": -95.357288
  },
  {
    "address": "Phoenix AZ 85019",
    "name": "Alhambra Elementary School District",
    "parentVueUrl": "https://parentvue.alhambraesd.org/",
    "latitude": 33.5087094,
    "longitude": -112.1400408
  },
  {
    "address": "Alpena MI 49707",
    "name": "Alpena Public Schools",
    "parentVueUrl": "https://pvue.alpenaschools.com/aps_pvue",
    "latitude": 45.0616794,
    "longitude": -83.4327528
  },
  {
    "address": "Alpena MI 49707",
    "name": "Alpena-Montmorency-Alcona Educational Service District",
    "parentVueUrl": "https://studentvue.geneseeisd.org/esd/",
    "latitude": 45.0616794,
    "longitude": -83.4327528
  },
  {
    "address": "Alpine AZ 85920",
    "name": "Alpine Elementary School District #7",
    "parentVueUrl": "https://az-aesd7.edupoint.com/",
    "latitude": 33.8483212,
    "longitude": -109.1432936
  },
  {
    "address": "Alpine CA 91901",
    "name": "Alpine Union School District",
    "parentVueUrl": "https://sdhome.sdcoe.net/Alpine",
    "latitude": 32.8350521,
    "longitude": -116.7664109
  },
  {
    "address": "Tucson AZ 85736",
    "name": "Altar Valley School District",
    "parentVueUrl": "https://az-alt.edupoint.com/",
    "latitude": 31.796262,
    "longitude": -111.4275888
  },
  {
    "address": "Phoenix AZ 85044",
    "name": "Ambassador Academy",
    "parentVueUrl": "https://az-aa.edupoint.com/",
    "latitude": 33.3211123,
    "longitude": -111.9880199
  },
  {
    "address": "Amithy OR 97101",
    "name": "Amity School District",
    "parentVueUrl": "https://or-amit.edupoint.com",
    "latitude": 45.1155617,
    "longitude": -123.2062156
  },
  {
    "address": "Ontario OR 97914",
    "name": "Annex School District",
    "parentVueUrl": "https://or-aes.edupoint.com/",
    "latitude": 44.0265525,
    "longitude": -116.9629378
  },
  {
    "address": "Anoka MN 55303",
    "name": "Anoka-Hennepin School District",
    "parentVueUrl": "https://SynergyPortal.anoka.k12.mn.us",
    "latitude": 45.1977428,
    "longitude": -93.3871758
  },
  {
    "address": "Wellton AZ 85356",
    "name": "Antelope Union High School",
    "parentVueUrl": "https://antelope.apscc.org/",
    "latitude": 32.6728256,
    "longitude": -114.1468821
  },
  {
    "address": "Apache Junction AZ 85120",
    "name": "Apache Junction Unified School District",
    "parentVueUrl": "https://synergyweb.ajusd.org",
    "latitude": 33.3934373,
    "longitude": -111.5647165
  },
  {
    "address": "Battle Creek MI 49015",
    "name": "Arbor Academy",
    "parentVueUrl": "https://studentvue.geneseeisd.org/aac",
    "latitude": 42.2743768,
    "longitude": -85.21012689999999
  },
  {
    "address": "Arcata CA 95521",
    "name": "Arcata Elementary School District",
    "parentVueUrl": "https://ca-aesd.edupoint.com/",
    "latitude": 40.8665166,
    "longitude": -124.0828396
  },
  {
    "address": "Phoenix AZ 85012",
    "name": "Arizona Agribusiness and Equine Center (AAEC)",
    "parentVueUrl": "https://aaec.apscc.org",
    "latitude": 33.5114334,
    "longitude": -112.0685027
  },
  {
    "address": "Phoenix AZ 85003",
    "name": "Arizona Call-A-Teen Youth Resources",
    "parentVueUrl": "https://az-acyr.edupoint.com/",
    "latitude": 33.4495511,
    "longitude": -112.0789355
  },
  {
    "address": "Phoenix AZ 85022",
    "name": "Arizona Language Preparatory",
    "parentVueUrl": "https://az-alp.edupoint.com/",
    "latitude": 33.6275483,
    "longitude": -112.0595603
  },
  {
    "address": "Phoenix AZ 85004",
    "name": "Arizona School for the Arts",
    "parentVueUrl": "https://asa.apscc.org/",
    "latitude": 33.4528292,
    "longitude": -112.0685027
  },
  {
    "address": "Arlington AZ 85322",
    "name": "Arlington Elementary School District #47",
    "parentVueUrl": "https://az-aesd47.edupoint.com/",
    "latitude": 33.3257096,
    "longitude": -112.763764
  },
  {
    "address": "Arlington VA 22207",
    "name": "Arlington Public Schools",
    "parentVueUrl": "https://va-arl-psv.edupoint.com",
    "latitude": 38.9105302,
    "longitude": -77.1197521
  },
  {
    "address": "Arlington OR 97812",
    "name": "Arlington School District",
    "parentVueUrl": "https://or-arl.edupoint.com",
    "latitude": 45.716796,
    "longitude": -120.2008761
  },
  {
    "address": "Ashby MN 56309",
    "name": "Ashby Public School",
    "parentVueUrl": "https://rt1.region1.k12.mn.us/rt0261",
    "latitude": 46.093016,
    "longitude": -95.8175498
  },
  {
    "address": "Savage MN 55378",
    "name": "Aspen Academy",
    "parentVueUrl": "https://pvue6.region1.k12.mn.us/rt4184",
    "latitude": 44.7451216,
    "longitude": -93.35904459999999
  },
  {
    "address": "Astoria OR 97103",
    "name": "Astoria School District",
    "parentVueUrl": "https://student-astoria.cascadetech.org/astoria",
    "latitude": 46.1878841,
    "longitude": -123.8312534
  },
  {
    "address": "Athena OR 97813",
    "name": "Athena-Weston School District",
    "parentVueUrl": "https://parent-athenaweston.cascadetech.org/athenaweston/",
    "latitude": 45.8117992,
    "longitude": -118.4905252
  },
  {
    "address": "Athens TN 37303",
    "name": "Athens City School District 541",
    "parentVueUrl": "https://sis-psvue2.tnk12.gov/acs/",
    "latitude": 35.424641,
    "longitude": -84.6269824
  },
  {
    "address": "Burton MI 48519",
    "name": "Atherton Community Schools",
    "parentVueUrl": "https://studentvue.geneseeisd.org/Athr",
    "latitude": 42.9865009,
    "longitude": -83.6029116
  },
  {
    "address": "Brooklyn Park MN 55443",
    "name": "Athlos Leadership Academy",
    "parentVueUrl": "https://mn4011vue.tiescloud.net/mn4011",
    "latitude": 45.1243266,
    "longitude": -93.3337208
  },
  {
    "address": "Augusta MI 49012",
    "name": "Augusta Academy",
    "parentVueUrl": "https://studentvue.geneseeisd.org/aga",
    "latitude": 42.3364294,
    "longitude": -85.35222189999999
  },
  {
    "address": "Avondale AZ 85323",
    "name": "Avondale Elementary School District #44",
    "parentVueUrl": "https://az-aesd44.edupoint.com",
    "latitude": 33.4334649,
    "longitude": -112.3278161
  },
  {
    "address": "Bagley MN 56621",
    "name": "Bagley Independent School District #162",
    "parentVueUrl": "https://rt1.region1.k12.mn.us/rt0162",
    "latitude": 47.5216231,
    "longitude": -95.39834909999999
  },
  {
    "address": "Baileyville ME 04694",
    "name": "Baileyville School District",
    "parentVueUrl": "https://me-bsd.edupoint.com/",
    "latitude": 45.1815281,
    "longitude": -67.441251
  },
  {
    "address": "Baldwin Park CA 91706",
    "name": "Baldwin Park Unified School District",
    "parentVueUrl": "https://ca-bpusd-psv.edupoint.com",
    "latitude": 34.0812006,
    "longitude": -117.9834738
  },
  {
    "address": "Phoenix AZ 85008",
    "name": "Balsz Elementary School District #31",
    "parentVueUrl": "https://parents.balsz.org",
    "latitude": 33.4660406,
    "longitude": -112.0118669
  },
  {
    "address": "Banks OR 97106",
    "name": "Banks School District",
    "parentVueUrl": "https://student-banks.cascadetech.org/banks",
    "latitude": 45.6178088,
    "longitude": -123.1144457
  },
  {
    "address": "La Puente CA 91746",
    "name": "Bassett Unified School District",
    "parentVueUrl": "https://ca-bas.edupoint.com",
    "latitude": 34.0541034,
    "longitude": -117.9893301
  },
  {
    "address": "Crystal MN 55427",
    "name": "Beacon Academy Charter School",
    "parentVueUrl": "https://rt1.region1.k12.mn.us/rt4124",
    "latitude": 45.0155422,
    "longitude": -93.37679759999999
  },
  {
    "address": "Rimrock AZ 86335",
    "name": "Beaver Creek School District #26",
    "parentVueUrl": "https://bcs.apscc.org",
    "latitude": 34.64041700000001,
    "longitude": -111.7833524
  },
  {
    "address": "Beaverton OR 97006",
    "name": "Beaverton School District -",
    "parentVueUrl": "https://studentvue.beaverton.k12.or.us",
    "latitude": 45.5179745,
    "longitude": -122.8541997
  },
  {
    "address": "Mount Kisco NY 10549",
    "name": "Bedford Central School District",
    "parentVueUrl": "https://ny-bcsd-psv.edupoint.com",
    "latitude": 41.2042616,
    "longitude": -73.72707609999999
  },
  {
    "address": "Flint MI 48505",
    "name": "Beecher Community School District",
    "parentVueUrl": "https://studentvue.geneseeisd.org/Bchr",
    "latitude": 43.0686471,
    "longitude": -83.6880257
  },
  {
    "address": "Bellevue WA 98005",
    "name": "Bellevue School District #405",
    "parentVueUrl": "https://wa-bsd405-PSV.edupoint.com",
    "latitude": 47.6150436,
    "longitude": -122.1717577
  },
  {
    "address": "Bend OR 97701",
    "name": "Bend-LaPine Schools",
    "parentVueUrl": "https://sv.bend.k12.or.us",
    "latitude": 44.0581728,
    "longitude": -121.3153096
  },
  {
    "address": "Burton MI 48529",
    "name": "Bendle Public Schools",
    "parentVueUrl": "https://studentvue.geneseeisd.org/Bend",
    "latitude": 42.9752297,
    "longitude": -83.66144000000001
  },
  {
    "address": "Flint MI 48507",
    "name": "Bendle-Carman Park Academy",
    "parentVueUrl": "https://studentvue.geneseeisd.org/Bcaa",
    "latitude": 42.9753551,
    "longitude": -83.75178509999999
  },
  {
    "address": "Burton MI 48509",
    "name": "Bentley Community Schools",
    "parentVueUrl": "https://studentvue.geneseeisd.org/Btly",
    "latitude": 43.0252245,
    "longitude": -83.6029116
  },
  {
    "address": "Camden TN 38320",
    "name": "Benton County Schools",
    "parentVueUrl": "HTTPS://sis-psvue1.tnk12.gov/BENCS",
    "latitude": 36.0313101,
    "longitude": -88.1291387
  },
  {
    "address": "Spanaway WA 98387",
    "name": "Bethel School District",
    "parentVueUrl": "https://wa-beth.edupoint.com",
    "latitude": 47.103988,
    "longitude": -122.4345661
  },
  {
    "address": "Blackduck MN 56630",
    "name": "Blackduck Public Schools",
    "parentVueUrl": "https://rt1.region1.k12.mn.us/rt0032",
    "latitude": 47.7330101,
    "longitude": -94.54857899999999
  },
  {
    "address": "Blue AZ 85922",
    "name": "Blue Elementary District",
    "parentVueUrl": "https://az-bed.edupoint.com/",
    "latitude": 33.63649729999999,
    "longitude": -109.0917618
  },
  {
    "address": "Blue Lake CA 95525",
    "name": "Blue Lake Union Elementary",
    "parentVueUrl": "https://ca-blu.edupoint.com/",
    "latitude": 40.8829072,
    "longitude": -123.9839488
  },
  {
    "address": "Lakeside AZ 85929",
    "name": "Blue Ridge Unified School District",
    "parentVueUrl": "https://az-blr.edupoint.com/",
    "latitude": 34.1425438,
    "longitude": -109.9603843
  },
  {
    "address": "Overland Park KS 66283",
    "name": "Blue Valley School District",
    "parentVueUrl": "https://bvpo.bluevalleyk12.org",
    "latitude": 38.86,
    "longitude": -94.67
  },
  {
    "address": "Bonsall CA 92003",
    "name": "Bonsall Unified School District",
    "parentVueUrl": "https://sdhome.sdcoe.net/Bonsall",
    "latitude": 33.2822878,
    "longitude": -117.185294
  },
  {
    "address": "Borrego Springs CA 92004-5003",
    "name": "Borrego Springs Unified School District",
    "parentVueUrl": "https://sdhome.sdcoe.net/BorregoSprings",
    "latitude": 33.2558717,
    "longitude": -116.375012
  },
  {
    "address": "Bowie AZ 85605",
    "name": "Bowie Unified School District #14",
    "parentVueUrl": "https://bowie.apscc.org",
    "latitude": 32.3259301,
    "longitude": -109.4870642
  },
  {
    "address": "Mesa AZ 85210",
    "name": "Boys & Girls Club of the East Valley",
    "parentVueUrl": "https://az-bgcev.edupoint.com/",
    "latitude": 33.3902569,
    "longitude": -111.8449346
  },
  {
    "address": "Bradford TN 38316",
    "name": "Bradford Area School District",
    "parentVueUrl": "https://psv-bradford.tnk12.gov/bssd",
    "latitude": 36.0764546,
    "longitude": -88.81006169999999
  },
  {
    "address": "Goodyear AZ 85338",
    "name": "Bradley Academy of Excellence",
    "parentVueUrl": "https://az-bae.edupoint.com/",
    "latitude": 33.3602393,
    "longitude": -112.4053046
  },
  {
    "address": "Cleveland TN 37311",
    "name": "Bradley County Schools",
    "parentVueUrl": "HTTPS://sis-psvue2.tnk12.gov/BCS",
    "latitude": 35.0981107,
    "longitude": -84.9297206
  },
  {
    "address": "Brandon MN 56315",
    "name": "Brandon-Evansville Public Schools",
    "parentVueUrl": "https://rt2.region1.k12.mn.us/rt0207",
    "latitude": 45.9652386,
    "longitude": -95.5986557
  },
  {
    "address": "Breckenridge MN 56520",
    "name": "Breckenridge Public School",
    "parentVueUrl": "https://rt1.region1.k12.mn.us/rt0846",
    "latitude": 46.26277779999999,
    "longitude": -96.5869443
  },
  {
    "address": "Brooklyn Center MN 55430",
    "name": "Brooklyn Center Community Schools",
    "parentVueUrl": "https://pvue7.region1.k12.mn.us/rt0286",
    "latitude": 45.0551429,
    "longitude": -93.3003292
  },
  {
    "address": "Buckeye AZ 85326",
    "name": "Buckeye Elementary School District #33",
    "parentVueUrl": "https://buckeye.apscc.org",
    "latitude": 33.3072204,
    "longitude": -112.5721881
  },
  {
    "address": "Buckeye AZ 85326",
    "name": "Buckeye Union High School District",
    "parentVueUrl": "https://vue.buhsd.org",
    "latitude": 33.3072204,
    "longitude": -112.5721881
  },
  {
    "address": "Burnsville MN 55337",
    "name": "Burnsville-Eagan-Savage School District 191",
    "parentVueUrl": "https://pvue5.region1.k12.mn.us/rt0191",
    "latitude": 44.7758378,
    "longitude": -93.2684215
  },
  {
    "address": "Unity OR 97884",
    "name": "Burnt River School District 30J",
    "parentVueUrl": "https://parent-burntriver.cascadetech.org/burntriver/",
    "latitude": 44.4373835,
    "longitude": -118.1927121
  },
  {
    "address": "Burr Oak MI 49030",
    "name": "Burr Oak Community Schools",
    "parentVueUrl": "https://studentvue.geneseeisd.org/boc",
    "latitude": 41.8472719,
    "longitude": -85.31858989999999
  },
  {
    "address": "Portland OR 97220",
    "name": "CTA - Cascade Technology Alliance",
    "parentVueUrl": "https://student-imesd.cascadetech.org/imesd/",
    "latitude": 45.5517361,
    "longitude": -122.5522483
  },
  {
    "address": "Calexico CA 92231",
    "name": "Calexico Unified School District",
    "parentVueUrl": "https://sdhome.sdcoe.net/Calexico",
    "latitude": 32.6789476,
    "longitude": -115.4988834
  },
  {
    "address": "Camas Valley OR 97416-0057",
    "name": "Camas Valley School District 21",
    "parentVueUrl": "https://student-camasvalley.cascadetech.org/camasvalley",
    "latitude": 43.0333629,
    "longitude": -123.6739646
  },
  {
    "address": "Campbell MN 56522",
    "name": "Campbell-Tintah Public Schools",
    "parentVueUrl": "https://rt3.region1.k12.mn.us/rt0852",
    "latitude": 46.0977375,
    "longitude": -96.4047889
  },
  {
    "address": "Canby OR 97013",
    "name": "Canby School District",
    "parentVueUrl": "https://synergy.clackesd.k12.or.us/CASD/",
    "latitude": 45.262692,
    "longitude": -122.6957402
  },
  {
    "address": "Faribault MN 55021",
    "name": "Cannon River STEM School",
    "parentVueUrl": "https://pvue6.region1.k12.mn.us/rt4194",
    "latitude": 44.2949636,
    "longitude": -93.268827
  },
  {
    "address": "Black Canyon City AZ 85324",
    "name": "Canon Elementary District",
    "parentVueUrl": "https://az-ced.edupoint.com/",
    "latitude": 34.0774991,
    "longitude": -112.1295121
  },
  {
    "address": "Carlsbad NM 88220",
    "name": "Carlsbad Municipal Schools",
    "parentVueUrl": "https://nm-car.edupoint.com",
    "latitude": 32.4203395,
    "longitude": -104.2289925
  },
  {
    "address": "Flint MI 48532",
    "name": "Carman-Ainsworth Community Schools",
    "parentVueUrl": "https://studentvue.geneseeisd.org/Carm",
    "latitude": 43.0164056,
    "longitude": -83.7942551
  },
  {
    "address": "Phoenix AZ 85033",
    "name": "Cartwright School District",
    "parentVueUrl": "https://az-cesd-psv.edupoint.com",
    "latitude": 33.4943072,
    "longitude": -112.2026347
  },
  {
    "address": "Tucson AZ 85718",
    "name": "Catalina Foothills Unified School District #16",
    "parentVueUrl": "https://az-cfsd16.edupoint.com",
    "latitude": 32.3085578,
    "longitude": -110.9148985
  },
  {
    "address": "Portland OR 97236",
    "name": "Centennial School District",
    "parentVueUrl": "https://student-centennial.cascadetech.org/centennial",
    "latitude": 45.4796668,
    "longitude": -122.5146061
  },
  {
    "address": "Flint MI 48507",
    "name": "Center for Countywide Programs",
    "parentVueUrl": "https://studentvue.geneseeisd.org/ccp",
    "latitude": 42.9753551,
    "longitude": -83.75178509999999
  },
  {
    "address": "Central Point OR 97502",
    "name": "Central Point School District No. 6",
    "parentVueUrl": "https://vue.district6.org",
    "latitude": 42.3759586,
    "longitude": -122.9164307
  },
  {
    "address": "Scottsdale AZ 85251",
    "name": "Champion Schools",
    "parentVueUrl": "https://az-champ.edupoint.com/",
    "latitude": 33.4986286,
    "longitude": -111.9224398
  },
  {
    "address": "La Plata MD 20646",
    "name": "Charles County Public Schools",
    "parentVueUrl": "https://md-ccps-psv.edupoint.com/",
    "latitude": 38.5292877,
    "longitude": -76.97525139999999
  },
  {
    "address": "Chesapeake VA 23322",
    "name": "Chesapeake Public Schools",
    "parentVueUrl": "https://va-cps-psv.edupoint.com/",
    "latitude": 36.6215976,
    "longitude": -76.2247366
  },
  {
    "address": "Henderson TN 38340",
    "name": "Chester County Schools",
    "parentVueUrl": "HTTPS://sis-psvue1.tnk12.gov/CHCS",
    "latitude": 35.4392435,
    "longitude": -88.641441
  },
  {
    "address": "Chesterfield VA 23832",
    "name": "Chesterfield County Public Schools",
    "parentVueUrl": "https://VA-CHESTERFIELD-PSV.edupoint.com",
    "latitude": 37.3770935,
    "longitude": -77.5049863
  },
  {
    "address": "Tucson AZ 85714",
    "name": "Chicanos Por La Causa",
    "parentVueUrl": "https://az-cplc-psv.edupoint.com",
    "latitude": 32.1657232,
    "longitude": -110.9417222
  },
  {
    "address": "Tucson AZ 85705",
    "name": "Chicanos Por La Causa Hiaki High School",
    "parentVueUrl": "https://az-cplch-psv.edupoint.com",
    "latitude": 32.2745229,
    "longitude": -110.9864294
  },
  {
    "address": "Lindstrom MN 55045",
    "name": "Chisago Lakes School District",
    "parentVueUrl": "https://pvue9.region1.k12.mn.us/rt2144",
    "latitude": 45.3894083,
    "longitude": -92.8479921
  },
  {
    "address": "Chokio MN 56221",
    "name": "Chokio-Alberta Public Schools",
    "parentVueUrl": "https://rt3.region1.k12.mn.us/rt0771",
    "latitude": 45.5758333,
    "longitude": -96.1730556
  },
  {
    "address": "Clackamas OR 97015",
    "name": "Clackamas ESD",
    "parentVueUrl": "https://synergy.clackesd.k12.or.us/CESD/",
    "latitude": 45.4120158,
    "longitude": -122.54578
  },
  {
    "address": "Whiteland IN 46184",
    "name": "Clark-Pleasant Community School Corporation",
    "parentVueUrl": "https://in-cpc-psv.edupoint.com",
    "latitude": 39.5500485,
    "longitude": -86.0797079
  },
  {
    "address": "86324",
    "name": "Clarkdale Jerome School District",
    "parentVueUrl": "https://cjsd3.apscc.org",
    "latitude": 34.8528761,
    "longitude": -112.1191757
  },
  {
    "address": "Clarkston MI 48346",
    "name": "Clarkston Community Schools",
    "parentVueUrl": "https://studentvue.geneseeisd.org/ccs",
    "latitude": 42.7351196,
    "longitude": -83.4192941
  },
  {
    "address": "Clatskanie OR 97016",
    "name": "Clatskanie School District",
    "parentVueUrl": "https://student-clatskanie.cascadetech.org/clatskanie",
    "latitude": 46.1041403,
    "longitude": -123.2039361
  },
  {
    "address": "Green Cove Springs FL 32043",
    "name": "Clay County School District",
    "parentVueUrl": "https://fl-clay-psv.edupoint.com",
    "latitude": 29.9919085,
    "longitude": -81.6781467
  },
  {
    "address": "Clearbrook MN 56634",
    "name": "Clearbrook-Gonvick",
    "parentVueUrl": "https://rt3.region1.k12.mn.us/rt2311",
    "latitude": 47.6919008,
    "longitude": -95.4311233
  },
  {
    "address": "Climax MI 49034",
    "name": "Climax-Scotts Community Schools",
    "parentVueUrl": "https://studentvue.geneseeisd.org/cscs",
    "latitude": 42.2383765,
    "longitude": -85.33499479999999
  },
  {
    "address": "Climax MN 56523",
    "name": "Climax-Shelly School",
    "parentVueUrl": "https://rt2.region1.k12.mn.us/rt0592",
    "latitude": 47.6077515,
    "longitude": -96.8170222
  },
  {
    "address": "Cilo MI 48420",
    "name": "Clio Area School District",
    "parentVueUrl": "https://studentvue.geneseeisd.org/clio",
    "latitude": 43.1775256,
    "longitude": -83.73412739999999
  },
  {
    "address": "Marietta GA 30060",
    "name": "Cobb County School District",
    "parentVueUrl": "https://studentvue.cobbk12.org",
    "latitude": 33.9488147,
    "longitude": -84.53794549999999
  },
  {
    "address": "Flagstaff AZ 86004",
    "name": "Coconino County Accommodation School District",
    "parentVueUrl": "https://az-ccasd.edupoint.com/",
    "latitude": 35.1982836,
    "longitude": -111.651302
  },
  {
    "address": "Manchester TN 37355",
    "name": "Coffee County Schools",
    "parentVueUrl": "https://psv-coffee.tnk12.gov/cof",
    "latitude": 35.4817431,
    "longitude": -86.0885993
  },
  {
    "address": "Fort Mohave AZ 86426",
    "name": "Colorado River Schools",
    "parentVueUrl": "https://synergy.crsk12.org",
    "latitude": 35.0099901,
    "longitude": -114.583658
  },
  {
    "address": "Colton OR 97017",
    "name": "Colton School District",
    "parentVueUrl": "https://synergy.clackesd.k12.or.us/COSD/",
    "latitude": 45.1721192,
    "longitude": -122.4374803
  },
  {
    "address": "Columbia Heights MN 55421",
    "name": "Columbia Heights Public Schools",
    "parentVueUrl": "https://pvue8.region1.k12.mn.us/rt0013",
    "latitude": 45.0481968,
    "longitude": -93.2474098
  },
  {
    "address": "Columbus NE 68601",
    "name": "Columbus Public Schools",
    "parentVueUrl": "https://ne-cps-psv.edupoint.com/",
    "latitude": 41.43029730000001,
    "longitude": -97.3593904
  },
  {
    "address": "Wheaton IL 60189",
    "name": "Community Unit School District 200",
    "parentVueUrl": "https://synergyweb.cusd200.org",
    "latitude": 41.8396885,
    "longitude": -88.11449429999999
  },
  {
    "address": "Saint Paul MN 55130",
    "name": "Community of Peace Academy",
    "parentVueUrl": "https://pvue7.region1.k12.mn.us/rt4015",
    "latitude": 44.9737443,
    "longitude": -93.08174729999999
  },
  {
    "address": "Condon OR 97823",
    "name": "Condon School District",
    "parentVueUrl": "https://or-con.edupoint.com",
    "latitude": 45.2342966,
    "longitude": -120.1850344
  },
  {
    "address": "Green Valley AZ 85614",
    "name": "Continental Elementary School District #39",
    "parentVueUrl": "https://az-cesd39.edupoint.com/",
    "latitude": 31.8542511,
    "longitude": -110.9937019
  },
  {
    "address": "Coos Bay OR 97420",
    "name": "Coos Bay School District",
    "parentVueUrl": "https://or-coosbay.edupoint.com/",
    "latitude": 43.3672213,
    "longitude": -124.2131325
  },
  {
    "address": "Corbett OR 97019",
    "name": "Corbett School District",
    "parentVueUrl": "https://student-corbett.cascadetech.org/corbett",
    "latitude": 45.5317887,
    "longitude": -122.2912175
  },
  {
    "address": "Coronado CA 92118",
    "name": "Coronado Pathways Charter School",
    "parentVueUrl": "https://sdhome.sdcoe.net/CoronadoPathways",
    "latitude": 32.6920499,
    "longitude": -117.1911749
  },
  {
    "address": "Coronado CA 92118",
    "name": "Coronado Unified School District",
    "parentVueUrl": "https://ca-cou.edupoint.com",
    "latitude": 32.6920499,
    "longitude": -117.1911749
  },
  {
    "address": "Cove OR 97824",
    "name": "Cove School District",
    "parentVueUrl": "https://parent-cove.cascadetech.org/cove/",
    "latitude": 45.2965256,
    "longitude": -117.8079872
  },
  {
    "address": "Yuma AZ 85364",
    "name": "Crane Schools",
    "parentVueUrl": "https://crane.apscc.org",
    "latitude": 32.7056541,
    "longitude": -114.678669
  },
  {
    "address": "Tempe AZ 85282",
    "name": "Create Academy",
    "parentVueUrl": "https://az-ca.edupoint.com/",
    "latitude": 33.3897576,
    "longitude": -111.9343636
  },
  {
    "address": "Phoenix AZ 85016",
    "name": "Creighton School District",
    "parentVueUrl": "https://az-crsd.edupoint.com",
    "latitude": 33.5106684,
    "longitude": -112.029752
  },
  {
    "address": "Alamo TN 38001",
    "name": "Crockett County Schools",
    "parentVueUrl": "HTTPS://sis-psvue1.tnk12.gov/CCS",
    "latitude": 35.7847949,
    "longitude": -89.1172883
  },
  {
    "address": "Prineville OR 97754",
    "name": "Crook County School District",
    "parentVueUrl": "https://or-ccsd.edupoint.com",
    "latitude": 44.2998485,
    "longitude": -120.8344664
  },
  {
    "address": "Crown King AZ 86343",
    "name": "Crown King Elementary School District #41",
    "parentVueUrl": "https://az-ckesd41.edupoint.com/",
    "latitude": 34.2055857,
    "longitude": -112.3384991
  },
  {
    "address": "Crystal Lake IL 60014",
    "name": "Crystal Lake Community Consolidated School District 47",
    "parentVueUrl": "https://d47.edupoint.com",
    "latitude": 42.23404559999999,
    "longitude": -88.3336477
  },
  {
    "address": "Cupertino CA 95014",
    "name": "Cupertino Union School District",
    "parentVueUrl": "https://parentvue.cusdk8.org",
    "latitude": 37.31317,
    "longitude": -122.0723816
  },
  {
    "address": "Portland OR 97233",
    "name": "David Douglas School District",
    "parentVueUrl": "https://student-daviddouglas.cascadetech.org/daviddouglas",
    "latitude": 45.5143706,
    "longitude": -122.5045791
  },
  {
    "address": "Davison MI 48423",
    "name": "Davison Community Schools",
    "parentVueUrl": "https://studentvue.geneseeisd.org/Davs",
    "latitude": 43.0347491,
    "longitude": -83.5180063
  },
  {
    "address": "Days Creek OR 97429",
    "name": "Days Creek Charter School",
    "parentVueUrl": "https://student-dayscreek.cascadetech.org/dayscreek",
    "latitude": 42.9723883,
    "longitude": -123.1729844
  },
  {
    "address": "Dayville OR 97825",
    "name": "Dayville School District",
    "parentVueUrl": "https://or-day.edupoint.com/",
    "latitude": 44.4682007,
    "longitude": -119.5358104
  },
  {
    "address": "Decaturville TN 38329",
    "name": "Decatur County Schools",
    "parentVueUrl": "HTTPS://sis-psvue1.tnk12.gov/DECCS",
    "latitude": 35.5842371,
    "longitude": -88.119479
  },
  {
    "address": "El Cajon CA 92019-2922",
    "name": "Dehesa School District",
    "parentVueUrl": "https://sdhome.sdcoe.net/Dehesa",
    "latitude": 32.7751095,
    "longitude": -116.8556955
  },
  {
    "address": "San Diego CA 92130",
    "name": "Del Mar Union School District",
    "parentVueUrl": "https://ca-dmusd.edupoint.com/",
    "latitude": 32.9436607,
    "longitude": -117.2088167
  },
  {
    "address": "Hershey PA 17033",
    "name": "Derry Township School District",
    "parentVueUrl": "https://pa-derry.edupoint.com",
    "latitude": 40.2713328,
    "longitude": -76.6297189
  },
  {
    "address": "Glendale AZ 85306",
    "name": "Desert Heights Charter Schools",
    "parentVueUrl": "https://az-dhcs.edupoint.com",
    "latitude": 33.6222797,
    "longitude": -112.1728283
  },
  {
    "address": "La Quinta CA 92253",
    "name": "Desert Sands Unified School District",
    "parentVueUrl": "https://student.dsusd.us/",
    "latitude": 33.6562975,
    "longitude": -116.2895173
  },
  {
    "address": "Tucson AZ 85712",
    "name": "Desert Sky Community School",
    "parentVueUrl": "https://az-dscs.edupoint.com",
    "latitude": 32.2540946,
    "longitude": -110.8850949
  },
  {
    "address": "Fort Mohave AZ 86426",
    "name": "Desert Star Academy",
    "parentVueUrl": "https://dsa.apscc.org",
    "latitude": 35.0099901,
    "longitude": -114.583658
  },
  {
    "address": "Dilworth MN 56529",
    "name": "Dilworth-Glyndon-Felton Public Schools (ISD# 2164)",
    "parentVueUrl": "https://rt4.region1.k12.mn.us/rt2164",
    "latitude": 46.8772685,
    "longitude": -96.6962754
  },
  {
    "address": "Chicago IL 60607",
    "name": "Distinctive Schools",
    "parentVueUrl": "https://il-dist.edupoint.com/PXP2_Login_Student.aspx",
    "latitude": 41.8733696,
    "longitude": -87.650714
  },
  {
    "address": "Hines OR 97738",
    "name": "Double O Elementary School",
    "parentVueUrl": "https://or-hesd.edupoint.com",
    "latitude": 43.5640385,
    "longitude": -119.0810482
  },
  {
    "address": "Drewsey OR 97904",
    "name": "Drewsey Elementary School",
    "parentVueUrl": "https://or-hesd.edupoint.com",
    "latitude": 43.8071385,
    "longitude": -118.3786823
  },
  {
    "address": "Dufur OR 97021",
    "name": "Dufur School District 29",
    "parentVueUrl": "https://or-duf.edupoint.com",
    "latitude": 45.4531754,
    "longitude": -121.1306244
  },
  {
    "address": "St. Paul MN 55108",
    "name": "Dugsi Academy Charter School",
    "parentVueUrl": "https://pvue8.region1.k12.mn.us/rt4153",
    "latitude": 44.9790183,
    "longitude": -93.18557349999999
  },
  {
    "address": "Dyersburg TN 38024",
    "name": "Dyer County Schools",
    "parentVueUrl": "HTTPS://sis-psvue1.tnk12.gov/DCS",
    "latitude": 36.0445248,
    "longitude": -89.436391
  },
  {
    "address": "Dyersburg TN 38024",
    "name": "Dyersburg City Schools",
    "parentVueUrl": "HTTPS://sis-psvue1.tnk12.gov/DYCS",
    "latitude": 36.0445248,
    "longitude": -89.436391
  },
  {
    "address": "Scottsdale AZ 85254",
    "name": "EES Demo District",
    "parentVueUrl": "https://demojb.edupoint.com",
    "latitude": 33.6071829,
    "longitude": -111.9403254
  },
  {
    "address": "Eagle Point OR 97524",
    "name": "Eagle Point School District 9 (Jackson County)",
    "parentVueUrl": "https://sv.eaglepoint.sis.k12.or.us",
    "latitude": 42.4726258,
    "longitude": -122.8028177
  },
  {
    "address": "Chandler AZ 85282",
    "name": "Early Career Academy Arizona Inc",
    "parentVueUrl": "https://az-ecaai.edupoint.com/",
    "latitude": 33.3897576,
    "longitude": -111.9343636
  },
  {
    "address": "Finlayson MN 55735",
    "name": "East Central Schools",
    "parentVueUrl": "https://pvue9.region1.k12.mn.us/rt2580",
    "latitude": 46.20161359999999,
    "longitude": -92.91603490000001
  },
  {
    "address": "East Grand Forks MN 56721",
    "name": "East Grand Forks Public Schools",
    "parentVueUrl": "https://rt2.region1.k12.mn.us/rt0595",
    "latitude": 47.9311871,
    "longitude": -97.00934699999999
  },
  {
    "address": "Eveleth MN 55734",
    "name": "East Range Academy of Technology and Science",
    "parentVueUrl": "https://pvue5.region1.k12.mn.us/rt4166",
    "latitude": 47.46242789999999,
    "longitude": -92.5399063
  },
  {
    "address": "Manorville NY 11949",
    "name": "Eastport South Manor Central School District",
    "parentVueUrl": "https://ny-esm-psv.edupoint.com",
    "latitude": 40.8737096,
    "longitude": -72.807879
  },
  {
    "address": "Echo OR 97826",
    "name": "Echo School District",
    "parentVueUrl": "https://student-echo.cascadetech.org/echo",
    "latitude": 45.7423537,
    "longitude": -119.195567
  },
  {
    "address": "Tucson AZ 85716",
    "name": "Ed Ahead",
    "parentVueUrl": "https://az-ea.edupoint.com/",
    "latitude": 32.2370907,
    "longitude": -110.9208593
  },
  {
    "address": "Glendale AZ 85305",
    "name": "Edison School of Innovation",
    "parentVueUrl": "https://edison.apscc.org/",
    "latitude": 33.5321111,
    "longitude": -112.256285
  },
  {
    "address": "Mesa AZ 85204",
    "name": "Edupoint Educational Systems - Internal",
    "parentVueUrl": "http://98.175.215.20/ST2022",
    "latitude": 33.3990327,
    "longitude": -111.7972384
  },
  {
    "address": "El Centro CA 92243",
    "name": "El Centro Elementary School District",
    "parentVueUrl": "https://sdhome.sdcoe.net/ElCentro",
    "latitude": 32.7538822,
    "longitude": -115.5917918
  },
  {
    "address": "El Monte CA 91731",
    "name": "El Monte Union High School District",
    "parentVueUrl": "https://ca-emuhsd-psv.edupoint.com",
    "latitude": 34.0835771,
    "longitude": -118.0361736
  },
  {
    "address": "Elfrida AZ 85610",
    "name": "Elfrida Elementary School District",
    "parentVueUrl": "https://az-eesd.edupoint.com/",
    "latitude": 31.6852283,
    "longitude": -109.6874513
  },
  {
    "address": "Elgin OR 97827",
    "name": "Elgin School District",
    "parentVueUrl": "https://parent-elgin.cascadetech.org/elgin/",
    "latitude": 45.5648612,
    "longitude": -117.917434
  },
  {
    "address": "Elk Grove CA 95624",
    "name": "Elk Grove Unified School District",
    "parentVueUrl": "https://ca-egusd-psv.edupoint.com/",
    "latitude": 38.4244019,
    "longitude": -121.3312882
  },
  {
    "address": "Elkton OR 97436",
    "name": "Elkton Charter School #34",
    "parentVueUrl": "https://student-elkton.cascadetech.org/elkton",
    "latitude": 43.6376174,
    "longitude": -123.5681519
  },
  {
    "address": "Phoenix AZ 85012",
    "name": "Empower College Prep",
    "parentVueUrl": "https://empower.apscc.org",
    "latitude": 33.5114334,
    "longitude": -112.0685027
  },
  {
    "address": "Enterprise OR 97828",
    "name": "Enterprise School District",
    "parentVueUrl": "https://or-ent.edupoint.com",
    "latitude": 45.4262617,
    "longitude": -117.2787815
  },
  {
    "address": "Escondido CA 92027",
    "name": "Escondido Charter High School",
    "parentVueUrl": "https://sdhome.sdcoe.net/EscondidoChrt",
    "latitude": 33.1467885,
    "longitude": -117.0087877
  },
  {
    "address": "Escondido CA 92027-2741",
    "name": "Escondido Union High School District",
    "parentVueUrl": "https://sdhome.sdcoe.net/EscondidoHigh",
    "latitude": 33.1467885,
    "longitude": -117.0087877
  },
  {
    "address": "Espanola NM 87532",
    "name": "Espanola Public School District #55",
    "parentVueUrl": "https://nm-espd55.edupoint.com",
    "latitude": 35.9910383,
    "longitude": -106.0818233
  },
  {
    "address": "Tolleson AZ 85353",
    "name": "Estrella Educational Foundation",
    "parentVueUrl": "https://az-eef.edupoint.com",
    "latitude": 33.4500425,
    "longitude": -112.259321
  },
  {
    "address": "Etowah TN 37331",
    "name": "Etowah City School",
    "parentVueUrl": "HTTPS://sis-psvue2.tnk12.gov/ECS",
    "latitude": 35.3234065,
    "longitude": -84.5249307
  },
  {
    "address": "Eugene OR 97402",
    "name": "Eugene School District 4J",
    "parentVueUrl": "https://sv.4j.lane.edu",
    "latitude": 44.0431493,
    "longitude": -123.2259181
  },
  {
    "address": "Kalamazoo MI 49008",
    "name": "Evergreen Academy",
    "parentVueUrl": "https://studentvue.geneseeisd.org/eva",
    "latitude": 42.2609411,
    "longitude": -85.612648
  },
  {
    "address": "20170",
    "name": "Fairfax County Public Schools",
    "parentVueUrl": "https://sisstudent.fcps.edu/SVUE",
    "latitude": 38.9808589,
    "longitude": -77.3841197
  },
  {
    "address": "Federal Way WA 98003",
    "name": "Federal Way Public Schools",
    "parentVueUrl": "https://grades.fwps.org",
    "latitude": 47.3165043,
    "longitude": -122.3223975
  },
  {
    "address": "Fenton MI 48430",
    "name": "Fenton Area Public Schools",
    "parentVueUrl": "https://studentvue.geneseeisd.org/fent",
    "latitude": 42.7978061,
    "longitude": -83.7049498
  },
  {
    "address": "Fergus Falls MN 56537",
    "name": "Fergus Falls Public Schools (ISD 544)",
    "parentVueUrl": "https://rt4.region1.k12.mn.us/rt0544",
    "latitude": 46.2835212,
    "longitude": -96.0777887
  },
  {
    "address": "Fertile MN 56540",
    "name": "Fertile-Beltrami Public School",
    "parentVueUrl": "https://rt1.region1.k12.mn.us/rt0599",
    "latitude": 47.5360765,
    "longitude": -96.2803328
  },
  {
    "address": "Flagstaff AZ 86004",
    "name": "Flagstaff Unified School District",
    "parentVueUrl": "https://fusd1.apscc.org",
    "latitude": 35.1982836,
    "longitude": -111.651302
  },
  {
    "address": "Richfield MN 55423",
    "name": "Flex Academy",
    "parentVueUrl": "https://mn4235vue.tiescloud.net/mn4235",
    "latitude": 44.8735964,
    "longitude": -93.2835137
  },
  {
    "address": "Flint MI 48503",
    "name": "Flint Community Schools",
    "parentVueUrl": "https://studentvue.geneseeisd.org/Flnt",
    "latitude": 43.0145534,
    "longitude": -83.6720756
  },
  {
    "address": "Florence AZ 85132",
    "name": "Florence Unified School District No. 1",
    "parentVueUrl": "https://fusdaz.apscc.org",
    "latitude": 33.0314508,
    "longitude": -111.3873431
  },
  {
    "address": "Flushing MI 48433",
    "name": "Flushing Community Schools",
    "parentVueUrl": "https://studentvue.geneseeisd.org/Flsh",
    "latitude": 43.0630833,
    "longitude": -83.8510732
  },
  {
    "address": "Kalamazoo MI 49048",
    "name": "Forest Academy",
    "parentVueUrl": "https://studentvue.geneseeisd.org/foa",
    "latitude": 42.2766433,
    "longitude": -85.50972259999999
  },
  {
    "address": "Forest Grove OR 97116",
    "name": "Forest Grove School District",
    "parentVueUrl": "https://student-forestgrove.cascadetech.org/forestgrove",
    "latitude": 45.5196767,
    "longitude": -123.1121017
  },
  {
    "address": "Forest Lake MN 55025",
    "name": "Forest Lake Area Schools",
    "parentVueUrl": "https://pvue6.region1.k12.mn.us/rt0831",
    "latitude": 45.2791243,
    "longitude": -92.9905314
  },
  {
    "address": "Fossil OR 97830",
    "name": "Fossil School District",
    "parentVueUrl": "https://or-fsd.edupoint.com",
    "latitude": 44.99818639999999,
    "longitude": -120.2161373
  },
  {
    "address": "Fosston MN 56542",
    "name": "Fosston School District",
    "parentVueUrl": "https://rt1.region1.k12.mn.us/rt0601",
    "latitude": 47.5761382,
    "longitude": -95.75167169999999
  },
  {
    "address": "Show Low AZ 85901",
    "name": "Founding Fathers Academies Inc",
    "parentVueUrl": "https://az-ffai.edupoint.com/",
    "latitude": 34.2542084,
    "longitude": -110.0298327
  },
  {
    "address": "Ontario OR 97914",
    "name": "Four Rivers Community School",
    "parentVueUrl": "https://or-frcs.edupoint.com/",
    "latitude": 44.0265525,
    "longitude": -116.9629378
  },
  {
    "address": "Anderson IN 46011",
    "name": "Frankton-Lapel Community Schools",
    "parentVueUrl": "https://in-flcs.edupoint.com/",
    "latitude": 40.1287659,
    "longitude": -85.7461548
  },
  {
    "address": "Frazee MN 56544",
    "name": "Frazee-Vergas Public Schools (ISD # 23)",
    "parentVueUrl": "https://rt4.region1.k12.mn.us/rt0023",
    "latitude": 46.72801459999999,
    "longitude": -95.7008776
  },
  {
    "address": "Fredonia AZ 86022",
    "name": "Fredonia-Mocassin Unified School District #6",
    "parentVueUrl": "https://az-fmusd6.edupoint.com/",
    "latitude": 36.945542,
    "longitude": -112.5265889
  },
  {
    "address": "Phoenix AZ 85032",
    "name": "Freedom Academy",
    "parentVueUrl": "https://parentvue.freedomacademyaz.org/",
    "latitude": 33.6364503,
    "longitude": -112.0118669
  },
  {
    "address": "Frenchglen OR 97736",
    "name": "Frenchglen Elementary School",
    "parentVueUrl": "https://or-hesd.edupoint.com",
    "latitude": 42.8279687,
    "longitude": -118.9152153
  },
  {
    "address": "Flint MI 48507",
    "name": "GITV - Live Distance Learning",
    "parentVueUrl": "https://studentvue.geneseeisd.org/GITV",
    "latitude": 42.9753551,
    "longitude": -83.75178509999999
  },
  {
    "address": "San Luis AZ 85349",
    "name": "Gadsden Elementary School District #32",
    "parentVueUrl": "https://synergy.gesd32.org",
    "latitude": 32.4908343,
    "longitude": -114.7677196
  },
  {
    "address": "Galesburg MI 49053",
    "name": "Galesburg-Augusta Community Schools",
    "parentVueUrl": "https://synergy.micase.org/gcs",
    "latitude": 42.2886529,
    "longitude": -85.41805599999999
  },
  {
    "address": "Gallup NM 87301",
    "name": "Gallup McKinley County Schools",
    "parentVueUrl": "https://nm-gmc-psv.edupoint.com/",
    "latitude": 35.5280783,
    "longitude": -108.7425843
  },
  {
    "address": "Galt CA 95632",
    "name": "Galt Joint Union Elementary School District",
    "parentVueUrl": "https://ca-galt-psv.edupoint.com",
    "latitude": 38.2546373,
    "longitude": -121.2999485
  },
  {
    "address": "Gaston OR 97119",
    "name": "Gaston School District",
    "parentVueUrl": "https://student-gaston.cascadetech.org/gaston",
    "latitude": 45.4360527,
    "longitude": -123.1417879
  },
  {
    "address": "Flint Township MI 48507",
    "name": "Genesee Career Institute",
    "parentVueUrl": "https://parentvue.geneseeisd.org/gci",
    "latitude": 42.9753551,
    "longitude": -83.75178509999999
  },
  {
    "address": "Flint Township MI 48502",
    "name": "Genesee Early College",
    "parentVueUrl": "https://studentvue.geneseeisd.org/GGEC",
    "latitude": 43.0142978,
    "longitude": -83.6893547
  },
  {
    "address": "Flint MI 48507-3493",
    "name": "Genesee Intermediate School District (GISD)",
    "parentVueUrl": "https://studentvue.geneseeisd.org/GISD",
    "latitude": 42.9753551,
    "longitude": -83.75178509999999
  },
  {
    "address": "Flint MI 48532",
    "name": "Genesee STEM Academy",
    "parentVueUrl": "https://studentvue.geneseeisd.org/gsa",
    "latitude": 43.0164056,
    "longitude": -83.7942551
  },
  {
    "address": "Genesee MI 48437",
    "name": "Genesee School District",
    "parentVueUrl": "https://studentvue.geneseeisd.org/Gens",
    "latitude": 43.1154033,
    "longitude": -83.6162183
  },
  {
    "address": "Phoenix AZ 85042",
    "name": "George Gervin Preparatory Academy",
    "parentVueUrl": "https://ggpa.edupoint.com",
    "latitude": 33.3762931,
    "longitude": -112.0357137
  },
  {
    "address": "Gila Bend AZ 85337",
    "name": "Gila Bend Unified School District",
    "parentVueUrl": "https://az-gila.edupoint.com",
    "latitude": 32.9478236,
    "longitude": -112.7168305
  },
  {
    "address": "Pulaski TN 38478",
    "name": "Giles County School System",
    "parentVueUrl": "https://psv-giles.tnk12.gov/giles",
    "latitude": 35.1998023,
    "longitude": -87.0308412
  },
  {
    "address": "Gladstone OR 97027-1450",
    "name": "Gladstone School District",
    "parentVueUrl": "https://synergy.clackesd.k12.or.us/GLSD/",
    "latitude": 45.389014,
    "longitude": -122.5931807
  },
  {
    "address": "Glendale AZ 85301",
    "name": "Glendale Elementary School District",
    "parentVueUrl": "https://parent.gesd40.org",
    "latitude": 33.5349253,
    "longitude": -112.1847509
  },
  {
    "address": "Glendale OR 97442",
    "name": "Glendale School District No 77",
    "parentVueUrl": "https://student-glendale.cascadetech.org/glendale",
    "latitude": 42.73622839999999,
    "longitude": -123.4233992
  },
  {
    "address": "Glendale AZ 85301",
    "name": "Glendale Union High School District",
    "parentVueUrl": "https://StudentVUE.guhsdaz.org",
    "latitude": 33.5349253,
    "longitude": -112.1847509
  },
  {
    "address": "Glide OR 97443",
    "name": "Glide School District",
    "parentVueUrl": "https://gsd.edupoint.com",
    "latitude": 43.3015069,
    "longitude": -123.1011754
  },
  {
    "address": "Wyoming MI 49548",
    "name": "Godwin Heights Public Schools",
    "parentVueUrl": "https://spportal.westmihosting.com/GHPS_pxp",
    "latitude": 42.86447709999999,
    "longitude": -85.6588999
  },
  {
    "address": "Goleta CA 93117",
    "name": "Goleta Union Elementary School District",
    "parentVueUrl": "https://ca-gol.edupoint.com/",
    "latitude": 34.4358294,
    "longitude": -119.8276389
  },
  {
    "address": "Goodrich MI 48438",
    "name": "Goodrich Area Schools",
    "parentVueUrl": "https://studentvue.geneseeisd.org/Good",
    "latitude": 42.916972,
    "longitude": -83.5063365
  },
  {
    "address": "Goodridge MN 56725",
    "name": "Goodridge Independent School District #561",
    "parentVueUrl": "https://rt3.region1.k12.mn.us/rt0561",
    "latitude": 48.1441587,
    "longitude": -95.8064814
  },
  {
    "address": "Indianapolis IN 46222",
    "name": "Goodwill Education Initiatives",
    "parentVueUrl": "https://in-gei.edupoint.com",
    "latitude": 39.7878289,
    "longitude": -86.2110301
  },
  {
    "address": "Louisville KY 40204",
    "name": "Goodwill Industries of Kentucky",
    "parentVueUrl": "https://ky-goodwill.edupoint.com",
    "latitude": 38.2415063,
    "longitude": -85.7230719
  },
  {
    "address": "Rutledge TN 37861",
    "name": "Grainger County Schools",
    "parentVueUrl": "HTTPS://sis-psvue2.tnk12.gov/GCS",
    "latitude": 36.2809202,
    "longitude": -83.5149023
  },
  {
    "address": "Grand Blanc MI 48439",
    "name": "Grand Blanc Academy",
    "parentVueUrl": "https://sis.geneseeisd.org/gba",
    "latitude": 42.9275277,
    "longitude": -83.6299518
  },
  {
    "address": "Grand Blanc MI 48439",
    "name": "Grand Blanc Community Schools",
    "parentVueUrl": "https://studentvue.geneseeisd.org/Gbcs",
    "latitude": 42.9275277,
    "longitude": -83.6299518
  },
  {
    "address": "Grand Haven MI 49417",
    "name": "Grand Haven Area Public Schools",
    "parentVueUrl": "https://pvue.ghaps.org/pxp",
    "latitude": 43.0630734,
    "longitude": -86.22838639999999
  },
  {
    "address": "Grand Island NE 68802",
    "name": "Grand Island Public Schools",
    "parentVueUrl": "https://ne-gips.edupoint.com",
    "latitude": 40.9260294,
    "longitude": -98.342947
  },
  {
    "address": "Grand Rapids MI 49506",
    "name": "Grand Rapids Christian Schools",
    "parentVueUrl": "http://synergyvue.grcs.org",
    "latitude": 42.9411011,
    "longitude": -85.61003869999999
  },
  {
    "address": "Grand Rapids MI 49501",
    "name": "Grand Rapids Public Schools",
    "parentVueUrl": "https://family.grps.org/PXP",
    "latitude": 42.9713293,
    "longitude": -85.6736663
  },
  {
    "address": "Canyon City OR 97820",
    "name": "Grant School District  #3",
    "parentVueUrl": "https://or-grant.edupoint.com/",
    "latitude": 44.3895995,
    "longitude": -118.9502315
  },
  {
    "address": "Grants NM 87020",
    "name": "Grants Cibola County Schools",
    "parentVueUrl": "https://nm-gccs.edupoint.com",
    "latitude": 35.14726,
    "longitude": -107.8514466
  },
  {
    "address": "Greenbush MN 56726",
    "name": "Greenbush Middle River School District",
    "parentVueUrl": "https://rt1.region1.k12.mn.us/rt2683",
    "latitude": 48.7005324,
    "longitude": -96.18168159999999
  },
  {
    "address": "Greenbush ME 04418",
    "name": "Greenbush School Department",
    "parentVueUrl": "https://me-gren.edupoint.com",
    "latitude": 45.0803409,
    "longitude": -68.6508635
  },
  {
    "address": "Greenville MI 48838",
    "name": "Greenville Public Schools",
    "parentVueUrl": "https://pvue.gpsjackets.org/PVUE",
    "latitude": 43.1775314,
    "longitude": -85.2527987
  },
  {
    "address": "Gresham OR 97030",
    "name": "Gresham-Barlow School District",
    "parentVueUrl": "https://student-gresham.cascadetech.org/gresham",
    "latitude": 45.5140983,
    "longitude": -122.4228701
  },
  {
    "address": "Grygla MN 56727",
    "name": "Grygla Public School",
    "parentVueUrl": "https://rt3.region1.k12.mn.us/rt0447",
    "latitude": 48.3007976,
    "longitude": -95.61833209999999
  },
  {
    "address": "Richland MI 49083",
    "name": "Gull Lake Community Schools",
    "parentVueUrl": "https://studentvue.geneseeisd.org/glc",
    "latitude": 42.3761504,
    "longitude": -85.45500539999999
  },
  {
    "address": "Suwanee GA 30024",
    "name": "Gwinnett County Public Schools",
    "parentVueUrl": "https://apps.gwinnett.k12.ga.us/sismobile/spvue",
    "latitude": 34.0514898,
    "longitude": -84.0712997
  },
  {
    "address": "Kingman AZ 86401",
    "name": "Hackberry Elementary School District #3",
    "parentVueUrl": "https://az-hesd3.edupoint.com/",
    "latitude": 35.189443,
    "longitude": -114.0530065
  },
  {
    "address": "Hagerman NM 88323",
    "name": "Hagerman Municipal Schools",
    "parentVueUrl": "https://nm-hag.edupoint.com/",
    "latitude": 33.5615099,
    "longitude": -105.4653897
  },
  {
    "address": "Hanford CA 93230-4029",
    "name": "Hanford Elementary School District",
    "parentVueUrl": "https://parentvue.hanfordesd.org/",
    "latitude": 36.3274502,
    "longitude": -119.6456844
  },
  {
    "address": "Bolivar TN 38008",
    "name": "Hardeman County Schools",
    "parentVueUrl": "HTTPS://sis-psvue1.tnk12.gov/HACS",
    "latitude": 35.2561937,
    "longitude": -88.9878389
  },
  {
    "address": "Savannah TN 38372",
    "name": "Hardin County Schools",
    "parentVueUrl": "https://psv-hardin.tnk12.gov/hard",
    "latitude": 35.2248034,
    "longitude": -88.2492037
  },
  {
    "address": "Burns OR 97720",
    "name": "Harney County School District #3",
    "parentVueUrl": "https://or-hcsd3.edupoint.com/",
    "latitude": 43.5862606,
    "longitude": -119.0541032
  },
  {
    "address": "Burns OR 97720",
    "name": "Harney Education Service District",
    "parentVueUrl": "https://or-hesd.edupoint.com",
    "latitude": 43.5862606,
    "longitude": -119.0541032
  },
  {
    "address": "Harper OR 97906",
    "name": "Harper School District",
    "parentVueUrl": "https://or-hsd.edupoint.com",
    "latitude": 43.8633338,
    "longitude": -117.6106525
  },
  {
    "address": "Minneapolis MN 55411",
    "name": "Harvest Preparatory School",
    "parentVueUrl": "https://mn4192vue.tiescloud.net/mn4192",
    "latitude": 44.99448719999999,
    "longitude": -93.2983975
  },
  {
    "address": "Hastings NE 68901",
    "name": "Hastings Public Schools",
    "parentVueUrl": "https://ne-hps.edupoint.com",
    "latitude": 40.5862583,
    "longitude": -98.38987259999999
  },
  {
    "address": "Heber CA 92249",
    "name": "Heber Elementary School District",
    "parentVueUrl": "https://sdhome.sdcoe.net/Heber",
    "latitude": 32.7308911,
    "longitude": -115.529718
  },
  {
    "address": "La Mesa CA 91942",
    "name": "Helix Charter High School",
    "parentVueUrl": "https://ca-helix.edupoint.com",
    "latitude": 32.7749487,
    "longitude": -117.0146736
  },
  {
    "address": "Helix OR 97835",
    "name": "Helix School District",
    "parentVueUrl": "https://parent-helix.cascadetech.org/helix/",
    "latitude": 45.8506443,
    "longitude": -118.6582318
  },
  {
    "address": "Lexington TN 38351",
    "name": "Henderson County Schools",
    "parentVueUrl": "HTTPS://sis-psvue1.tnk12.gov/HENCS",
    "latitude": 35.6509029,
    "longitude": -88.3933796
  },
  {
    "address": "Paris TN 38242",
    "name": "Henry County Schools",
    "parentVueUrl": "HTTPS://sis-psvue1.tnk12.gov/HCS",
    "latitude": 36.2942119,
    "longitude": -88.28504199999999
  },
  {
    "address": "Escondido CA 92027",
    "name": "Heritage Charter School",
    "parentVueUrl": "https://sdhome.sdcoe.net/HeritageChrt",
    "latitude": 33.1467885,
    "longitude": -117.0087877
  },
  {
    "address": "Escondido CA 92027",
    "name": "Heritage Digital Academy",
    "parentVueUrl": "https://sdhome.sdcoe.net/Heritagedigital",
    "latitude": 33.1467885,
    "longitude": -117.0087877
  },
  {
    "address": "Herman MN 56248",
    "name": "Herman-Norcross Community School",
    "parentVueUrl": "https://rt3.region1.k12.mn.us/rt0264",
    "latitude": 45.8085718,
    "longitude": -96.1433921
  },
  {
    "address": "Tucson AZ 85719",
    "name": "Highland Free School",
    "parentVueUrl": "https://az-hfs.edupoint.com",
    "latitude": 32.2438145,
    "longitude": -110.9447027
  },
  {
    "address": "Burien WA 98166",
    "name": "Highline Public Schools",
    "parentVueUrl": "https://wa-high-psv.edupoint.com",
    "latitude": 47.4475151,
    "longitude": -122.3567244
  },
  {
    "address": "Gilbert AZ 85295",
    "name": "Higley Unified School District",
    "parentVueUrl": "https://parentvue.husd.org/",
    "latitude": 33.3073768,
    "longitude": -111.7435799
  },
  {
    "address": "Mesa AZ 85206",
    "name": "Hillcrest Academy",
    "parentVueUrl": "https://hillcrest.apscc.org",
    "latitude": 33.3951613,
    "longitude": -111.7018452
  },
  {
    "address": "Hillsboro OR 97124",
    "name": "Hillsboro School District",
    "parentVueUrl": "https://myvue.cascadetech.org/hillsboro/",
    "latitude": 45.5442824,
    "longitude": -122.9521023
  },
  {
    "address": "Tampa FL 33602",
    "name": "Hillsborough County Public Schools",
    "parentVueUrl": "https://fl-hcps-psv.edupoint.com",
    "latitude": 27.9552692,
    "longitude": -82.4563199
  },
  {
    "address": "Hinckley MN 55037",
    "name": "Hinckley-Finlayson Public Schools",
    "parentVueUrl": "https://pvue9.region1.k12.mn.us/rt2165",
    "latitude": 46.015,
    "longitude": -92.9388889
  },
  {
    "address": "Holtville CA 92250",
    "name": "Holtville USD",
    "parentVueUrl": "https://sdhome.sdcoe.net/holtville",
    "latitude": 32.8111612,
    "longitude": -115.3802643
  },
  {
    "address": "ELLICOTT CITY MD 21042",
    "name": "Howard County Public School System",
    "parentVueUrl": "https://sisparents.hcpss.org",
    "latitude": 39.2590567,
    "longitude": -76.8951551
  },
  {
    "address": "Howard Lake MN 55349",
    "name": "Howard Lake-Waverly-Winsted Public Schools",
    "parentVueUrl": "https://pvue10.region1.k12.mn.us/rt2687",
    "latitude": 45.0612665,
    "longitude": -94.0742843
  },
  {
    "address": "Franklin MI 48025",
    "name": "Huda School",
    "parentVueUrl": "https://mi-hs.edupoint.com",
    "latitude": 42.5222567,
    "longitude": -83.30604319999999
  },
  {
    "address": "Prescott Valley AZ 86314",
    "name": "Humboldt Unified School District",
    "parentVueUrl": "https://humboldtunified.apscc.org",
    "latitude": 34.6062718,
    "longitude": -112.3099336
  },
  {
    "address": "Huntington OR 97907",
    "name": "Huntington School District",
    "parentVueUrl": "https://or-hun.edupoint.com/",
    "latitude": 44.3512726,
    "longitude": -117.2665686
  },
  {
    "address": "Imbler OR 97841",
    "name": "Imbler School District",
    "parentVueUrl": "https://parent-imbler.cascadetech.org/imbler/",
    "latitude": 45.4595816,
    "longitude": -117.9621587
  },
  {
    "address": "Imperial CA 92251",
    "name": "Imperial Unified School District",
    "parentVueUrl": "https://sdhome.sdcoe.net/Imperial",
    "latitude": 32.8475528,
    "longitude": -115.5694391
  },
  {
    "address": "Goodyear AZ 85338",
    "name": "Incito Schools",
    "parentVueUrl": "https://az-is.edupoint.com/",
    "latitude": 33.3602393,
    "longitude": -112.4053046
  },
  {
    "address": "Aurora IL 60504",
    "name": "Indian Prairie School District 204",
    "parentVueUrl": "https://il-ipsd-psv.edupoint.com/",
    "latitude": 41.7568116,
    "longitude": -88.21690269999999
  },
  {
    "address": "National City CA 91950",
    "name": "Integrity Charter School",
    "parentVueUrl": "https://sdhome.sdcoe.net/IntegrityCharter",
    "latitude": 32.6721599,
    "longitude": -117.0970596
  },
  {
    "address": "Allen Park MI 48101",
    "name": "Inter-City Baptist School",
    "parentVueUrl": "https://mi-ibs.edupoint.com",
    "latitude": 42.2427186,
    "longitude": -83.2184763
  },
  {
    "address": "Pendleton OR 97801",
    "name": "InterMountain Education Service District",
    "parentVueUrl": "https://student-imesd.cascadetech.org/imesd",
    "latitude": 45.672075,
    "longitude": -118.7885967
  },
  {
    "address": "Plymouth MN 55441",
    "name": "Intermediate District 287",
    "parentVueUrl": "https://mn-id287.edupoint.com/",
    "latitude": 44.9951298,
    "longitude": -93.4352207
  },
  {
    "address": "Ione OR 97843",
    "name": "Ione School District",
    "parentVueUrl": "https://parent-ione.cascadetech.org/ione/",
    "latitude": 45.5012431,
    "longitude": -119.8247508
  },
  {
    "address": "Phoenix AZ 85009",
    "name": "Isaac Elementary School District",
    "parentVueUrl": "https://parents.isaacschools.org/",
    "latitude": 33.4438042,
    "longitude": -112.1310986
  },
  {
    "address": "San Tan Valley AZ 85140",
    "name": "JO Combs Unified School District No. 44",
    "parentVueUrl": "https://az-joc.edupoint.com",
    "latitude": 33.2544202,
    "longitude": -111.5349059
  },
  {
    "address": "Phoenix AZ 85033",
    "name": "James Sandoval Preparatory High School",
    "parentVueUrl": "https://az-jsphs.edupoint.com/",
    "latitude": 33.4943072,
    "longitude": -112.2026347
  },
  {
    "address": "Jamul CA 91935",
    "name": "Jamul-Dulzura Union School District",
    "parentVueUrl": "https://sdhome.sdcoe.net/Jamul",
    "latitude": 32.7169988,
    "longitude": -116.8761347
  },
  {
    "address": "Daly City CA 94015",
    "name": "Jefferson Elementary School District",
    "parentVueUrl": "https://portal.jsd.k12.ca.us/",
    "latitude": 37.68000019999999,
    "longitude": -122.4863492
  },
  {
    "address": "Daly City CA 94015",
    "name": "Jefferson Union High School District",
    "parentVueUrl": "https://genesis.juhsd.net/pxp",
    "latitude": 37.68000019999999,
    "longitude": -122.4863492
  },
  {
    "address": "Seaside OR 97138",
    "name": "Jewell School District #8",
    "parentVueUrl": "https://student-jewell.cascadetech.org/jewell",
    "latitude": 45.9931636,
    "longitude": -123.9226385
  },
  {
    "address": "Joplin MO 64801",
    "name": "Joplin Schools",
    "parentVueUrl": "https://mo-jos.edupoint.com/",
    "latitude": 37.1034245,
    "longitude": -94.5418141
  },
  {
    "address": "Jordan Valley OR 97910-0099",
    "name": "Jordan Valley School District",
    "parentVueUrl": "https://or-jvsd.edupoint.com/",
    "latitude": 42.9740445,
    "longitude": -117.0543038
  },
  {
    "address": "Joseph OR 97846",
    "name": "Joseph School District",
    "parentVueUrl": "https://or-jos.edupoint.com",
    "latitude": 45.3543187,
    "longitude": -117.2296126
  },
  {
    "address": "Julian CA 92036",
    "name": "Julian Union High School District",
    "parentVueUrl": "https://sdhome.sdcoe.net/JulianHigh",
    "latitude": 33.0786552,
    "longitude": -116.6019637
  },
  {
    "address": "Julian CA 92036",
    "name": "Julian Union School District",
    "parentVueUrl": "https://sdhome.sdcoe.net/julianelementary",
    "latitude": 33.0786552,
    "longitude": -116.6019637
  },
  {
    "address": "Kalamazoo MI 49008",
    "name": "Kalamazoo Area Mathematics & Science Center",
    "parentVueUrl": "https://studentvue.geneseeisd.org/kam",
    "latitude": 42.2609411,
    "longitude": -85.612648
  },
  {
    "address": "Kalamazoo MI 49008",
    "name": "Kalamazoo Christian School Association",
    "parentVueUrl": "https://synergypvue.micase.org/kcs",
    "latitude": 42.2609411,
    "longitude": -85.612648
  },
  {
    "address": "Otsego MN 55301",
    "name": "Kaleidoscope Charter School",
    "parentVueUrl": "https://rt1.region1.k12.mn.us/rt4118",
    "latitude": 45.2499294,
    "longitude": -93.6711641
  },
  {
    "address": "Kayenta AZ 86033",
    "name": "Kayenta Unified School District",
    "parentVueUrl": "https://kayenta.apscc.org",
    "latitude": 36.72777689999999,
    "longitude": -110.2545767
  },
  {
    "address": "Flint MI 48506",
    "name": "Kearsley Community Schools",
    "parentVueUrl": "https://studentvue.geneseeisd.org/Kear",
    "latitude": 43.0651073,
    "longitude": -83.624201
  },
  {
    "address": "Kelliher MN 56650",
    "name": "Kelliher Public School",
    "parentVueUrl": "https://rt1.region1.k12.mn.us/rt0036",
    "latitude": 47.9416249,
    "longitude": -94.4482903
  },
  {
    "address": "Kentwood MI 49508",
    "name": "Kentwood Public Schools",
    "parentVueUrl": "https://synergypvue.kentwoodps.org",
    "latitude": 42.8683658,
    "longitude": -85.63320929999999
  },
  {
    "address": "Bakersfield CA 93309",
    "name": "Kern Unified High School District",
    "parentVueUrl": "https://connect.kernhigh.org",
    "latitude": 35.3515611,
    "longitude": -119.0576298
  },
  {
    "address": "Prescott AZ 23219",
    "name": "Kestrel Schools Inc",
    "parentVueUrl": "https://az-ksi.edupoint.com/",
    "latitude": 34.5400242,
    "longitude": -112.4685025
  },
  {
    "address": "Kingman AZ 86409",
    "name": "Kingman Academy of Learning",
    "parentVueUrl": "https://kaol.apscc.org",
    "latitude": 35.189443,
    "longitude": -114.0530065
  },
  {
    "address": "Kingman AZ 86401",
    "name": "Kingman Unified School District #20",
    "parentVueUrl": "https://studentvue.kusd.org",
    "latitude": 35.189443,
    "longitude": -114.0530065
  },
  {
    "address": "Spring Valley MN 55975",
    "name": "Kingsland Public Schools",
    "parentVueUrl": "https://mn2137vue.tiescloud.net/mn2137",
    "latitude": 43.684423,
    "longitude": -92.396174
  },
  {
    "address": "Hallock MN 56728",
    "name": "Kittson Central",
    "parentVueUrl": "https://rt1.region1.k12.mn.us/rt2171",
    "latitude": 48.77442629999999,
    "longitude": -96.94644699999999
  },
  {
    "address": "Astoria OR 97103",
    "name": "Knappa School District",
    "parentVueUrl": "https://student-knappa.cascadetech.org/knappa",
    "latitude": 46.1878841,
    "longitude": -123.8312534
  },
  {
    "address": "Tempe AZ 85284",
    "name": "Kyrene School District",
    "parentVueUrl": "https://az-ksd-psv.edupoint.com",
    "latitude": 33.3363836,
    "longitude": -111.9343636
  },
  {
    "address": "La Grande OR 97850",
    "name": "La Grande School District",
    "parentVueUrl": "https://or-lag.edupoint.com",
    "latitude": 45.3245771,
    "longitude": -118.0877188
  },
  {
    "address": "86301",
    "name": "La Tierra Community Schools",
    "parentVueUrl": "https://latierra.apscc.org",
    "latitude": 34.5659245,
    "longitude": -112.4649083
  },
  {
    "address": "Tiptonville TN 38079",
    "name": "Lake County Schools",
    "parentVueUrl": "https://psv-lake.tnk12.gov/lake",
    "latitude": 36.3783984,
    "longitude": -89.47201930000001
  },
  {
    "address": "Fenton MI 48430",
    "name": "Lake Fenton Community Schools",
    "parentVueUrl": "https://studentvue.geneseeisd.org/Lkfn",
    "latitude": 42.7978061,
    "longitude": -83.7049498
  },
  {
    "address": "Lake Havasu City AZ 86403",
    "name": "Lake Havasu Unified School District #1",
    "parentVueUrl": "https://az-lhusd1.edupoint.com",
    "latitude": 34.4788404,
    "longitude": -114.3460283
  },
  {
    "address": "Lake Oswego OR 97034-0070",
    "name": "Lake Oswego School District",
    "parentVueUrl": "https://synergy.clackesd.k12.or.us/LOSD/",
    "latitude": 45.4031666,
    "longitude": -122.688201
  },
  {
    "address": "Lake Park MN 56554",
    "name": "Lake Park Audubon ISD 2889",
    "parentVueUrl": "https://rt2.region1.k12.mn.us/rt2889",
    "latitude": 46.8863481,
    "longitude": -96.0945002
  },
  {
    "address": "Baudette MN 56623",
    "name": "Lake of the Woods Community Schools",
    "parentVueUrl": "https://rt1.region1.k12.mn.us/rt0390",
    "latitude": 48.7124736,
    "longitude": -94.59992989999999
  },
  {
    "address": "Otisville MI 48463",
    "name": "LakeVille Community Schools",
    "parentVueUrl": "https://studentvue.geneseeisd.org/Lkvl",
    "latitude": 43.1661367,
    "longitude": -83.5243976
  },
  {
    "address": "Kalamazoo MI 49008",
    "name": "Lakeside Charter School",
    "parentVueUrl": "https://parentvue.geneseeisd.org/lcs",
    "latitude": 42.2609411,
    "longitude": -85.612648
  },
  {
    "address": "Lakeside CA 92040",
    "name": "Lakeside Union School District",
    "parentVueUrl": "https://sdhome.sdcoe.net/Lakeside",
    "latitude": 32.8572718,
    "longitude": -116.9222488
  },
  {
    "address": "Cottonwood MN 56229",
    "name": "Lakeview School District",
    "parentVueUrl": "https://pvue6.region1.k12.mn.us/rt2167",
    "latitude": 44.6088607,
    "longitude": -95.6737122
  },
  {
    "address": "Woodland MI 48897",
    "name": "Lakewood Public Schools",
    "parentVueUrl": "http://genesis.lakewood.k12.mi.us",
    "latitude": 42.7267014,
    "longitude": -85.1336129
  },
  {
    "address": "Lancaster MN 56735",
    "name": "Lancaster School District 356",
    "parentVueUrl": "https://rt3.region1.k12.mn.us/rt0356",
    "latitude": 48.8583146,
    "longitude": -96.8042148
  },
  {
    "address": "Lansing MI 48933",
    "name": "Lansing School District",
    "parentVueUrl": "https://synergy.lansingschools.net/production/",
    "latitude": 42.7371075,
    "longitude": -84.55628779999999
  },
  {
    "address": "Lapeer MI 48446",
    "name": "Lapeer County Intermediate School District",
    "parentVueUrl": "https://synergy.lapeerisd.org/",
    "latitude": 43.0514161,
    "longitude": -83.31883409999999
  },
  {
    "address": "Laporte MN 56461",
    "name": "Laporte School District #306",
    "parentVueUrl": "https://rt1.region1.k12.mn.us/rt0306",
    "latitude": 47.2138445,
    "longitude": -94.75416829999999
  },
  {
    "address": "Las Cruces NM 88001",
    "name": "Las Cruces Public School District",
    "parentVueUrl": "https://parentvue.lcps.k12.nm.us",
    "latitude": 32.3001619,
    "longitude": -106.7529514
  },
  {
    "address": "Laveen AZ 85339",
    "name": "Laveen Elementary School District #59",
    "parentVueUrl": "https://laveenvue.apscc.org",
    "latitude": 33.3825705,
    "longitude": -112.1236468
  },
  {
    "address": "Gilbert AZ 85296",
    "name": "Leading Edge Academy",
    "parentVueUrl": "https://az-lea.edupoint.com/",
    "latitude": 33.3345698,
    "longitude": -111.7383162
  },
  {
    "address": "Gilbert AZ 85296",
    "name": "Learning Foundation",
    "parentVueUrl": "https://lfpaa.edupoint.com",
    "latitude": 33.3345698,
    "longitude": -111.7383162
  },
  {
    "address": "Marana AZ 85743",
    "name": "Leman Academy of Excellence",
    "parentVueUrl": "https://az-lae.edupoint.com/",
    "latitude": 32.2975392,
    "longitude": -111.1652687
  },
  {
    "address": "Lester Prairie MN 55354",
    "name": "Lester Prairie Independent School District",
    "parentVueUrl": "https://pvue8.region1.k12.mn.us/rt0424",
    "latitude": 44.8838514,
    "longitude": -94.0416389
  },
  {
    "address": "White Bear Lake MN 55110",
    "name": "Level Up Academy",
    "parentVueUrl": "https://mn4233vue.tiescloud.net/mn4233",
    "latitude": 45.0911599,
    "longitude": -93.01124569999999
  },
  {
    "address": "Lexington TN 38351",
    "name": "Lexington City Schools",
    "parentVueUrl": "https://sis-lexington.tnk12.gov/lcs",
    "latitude": 35.6509029,
    "longitude": -88.3933796
  },
  {
    "address": "Buckeye AZ 85326",
    "name": "Liberty Elementary School District",
    "parentVueUrl": "https://az-lib.edupoint.com/",
    "latitude": 33.3072204,
    "longitude": -112.5721881
  },
  {
    "address": "Newport OR 97365",
    "name": "Lincoln County School District",
    "parentVueUrl": "https://or-lincoln-psv.edupoint.com",
    "latitude": 44.6367836,
    "longitude": -124.0534505
  },
  {
    "address": "Lincoln NE 68510",
    "name": "Lincoln Public Schools",
    "parentVueUrl": "https://synergyvue.lps.org",
    "latitude": 40.804574,
    "longitude": -96.6157192
  },
  {
    "address": "Linden MI 48451",
    "name": "Linden Community Schools",
    "parentVueUrl": "https://studentvue.geneseeisd.org/Lind",
    "latitude": 42.8144731,
    "longitude": -83.7824526
  },
  {
    "address": "Minnetonka MN 55343",
    "name": "Lionsgate Academy",
    "parentVueUrl": "https://pvue8.region1.k12.mn.us/rt4183",
    "latitude": 44.9019949,
    "longitude": -93.42964459999999
  },
  {
    "address": "Litchfield Park AZ 85340",
    "name": "Litchfield Elementary School District",
    "parentVueUrl": "https://az-litch-psv.edupoint.com",
    "latitude": 33.4933743,
    "longitude": -112.3579364
  },
  {
    "address": "El Cajon CA 92020",
    "name": "Literacy First Charter Schools",
    "parentVueUrl": "https://sdhome.sdcoe.net/LiteracyFirst",
    "latitude": 32.79632220000001,
    "longitude": -116.9675814
  },
  {
    "address": "Avondale AZ 85323",
    "name": "Littleton Elementary School District #65",
    "parentVueUrl": "https://littleton.apscc.org",
    "latitude": 33.4334649,
    "longitude": -112.3278161
  },
  {
    "address": "Long Beach CA 90810",
    "name": "Long Beach Unified School District",
    "parentVueUrl": "https://ca-lbusd-psv.edupoint.com",
    "latitude": 33.8113701,
    "longitude": -118.2234229
  },
  {
    "address": "Long Creek OR 97856",
    "name": "Long Creek School District",
    "parentVueUrl": "https://or-lcsd.edupoint.com/",
    "latitude": 44.714042,
    "longitude": -119.1041375
  },
  {
    "address": "Ashburn VA 20148",
    "name": "Loudoun County Public Schools",
    "parentVueUrl": "https://portal.lcps.org",
    "latitude": 39.0118703,
    "longitude": -77.5275463
  },
  {
    "address": "Loving NM 88256",
    "name": "Loving Municipal Schools",
    "parentVueUrl": "https://nm-lms.edupoint.com",
    "latitude": 32.2862317,
    "longitude": -104.095773
  },
  {
    "address": "Detroit MI 48238",
    "name": "Loyola High School",
    "parentVueUrl": "studentvue.geneseeisd.org/loyola",
    "latitude": 42.3997016,
    "longitude": -83.13809549999999
  },
  {
    "address": "St. Louis MO 63103",
    "name": "MERS Goodwill",
    "parentVueUrl": "https://mo-mers.edupoint.com/",
    "latitude": 38.629185,
    "longitude": -90.2174318
  },
  {
    "address": "Brawley CA 92227",
    "name": "Magnolia Union ESD",
    "parentVueUrl": "https://sdsis2.sdcoe.net/magnolia",
    "latitude": 32.9786566,
    "longitude": -115.530267
  },
  {
    "address": "Mahnomen MN 56557",
    "name": "Mahnomen Public Schools",
    "parentVueUrl": "https://rt2.region1.k12.mn.us/rt0432",
    "latitude": 47.31727490000001,
    "longitude": -95.9655384
  },
  {
    "address": "Mahtomedi MN 55115",
    "name": "Mahtomedi Public Schools ISD #832",
    "parentVueUrl": "https://pvue6.region1.k12.mn.us/rt0832",
    "latitude": 45.0692873,
    "longitude": -92.9535994
  },
  {
    "address": "Parks AZ 86018",
    "name": "Maine Consolidated School",
    "parentVueUrl": "https://maine.apscc.org",
    "latitude": 35.3953028,
    "longitude": -111.9641728
  },
  {
    "address": "Marana AZ 85653",
    "name": "Marana Unified School District",
    "parentVueUrl": "https://genesis.maranausd.org",
    "latitude": 32.436381,
    "longitude": -111.2224422
  },
  {
    "address": "Phoenix AZ 85017",
    "name": "Maricopa County Regional School District",
    "parentVueUrl": "https://az-mcrsd-psv.edupoint.com/",
    "latitude": 33.514162,
    "longitude": -112.1251372
  },
  {
    "address": "Maricopa AZ 85138",
    "name": "Maricopa Unified School District #20",
    "parentVueUrl": "https://musd20.apscc.org",
    "latitude": 33.0581063,
    "longitude": -112.0476423
  },
  {
    "address": "Jasper TN 37347",
    "name": "Marion County Schools",
    "parentVueUrl": "HTTPS://sis-psvue1.tnk12.gov/MARCS",
    "latitude": 35.0742448,
    "longitude": -85.6260789
  },
  {
    "address": "Newfolden MN 56738",
    "name": "Marshall County Central Schools",
    "parentVueUrl": "https://rt1.region1.k12.mn.us/rt0441",
    "latitude": 48.35552879999999,
    "longitude": -96.33003699999999
  },
  {
    "address": "Lewisburg TN 37091",
    "name": "Marshall County Schools",
    "parentVueUrl": "https://psv-marshall.tnk12.gov/mar",
    "latitude": 35.4492404,
    "longitude": -86.7888887
  },
  {
    "address": "Centennial Park AZ 86021",
    "name": "Masada Charter School",
    "parentVueUrl": "https://az-mcs.edupoint.com",
    "latitude": 36.9619155,
    "longitude": -113.013113
  },
  {
    "address": "Palmer AK 99645",
    "name": "Matanuska-Susitna School District",
    "parentVueUrl": "https://ak-matsu-psv.edupoint.com",
    "latitude": 61.599415,
    "longitude": -149.1146333
  },
  {
    "address": "Columbia TN 38401",
    "name": "Maury County Public Schools",
    "parentVueUrl": "https://psv-maury.tnk12.gov/mau",
    "latitude": 35.6603272,
    "longitude": -87.0224442
  },
  {
    "address": "El Centro CA 92243",
    "name": "McCabe Elementary",
    "parentVueUrl": "https://sdhome.sdcoe.net/mccabe",
    "latitude": 32.7538822,
    "longitude": -115.5917918
  },
  {
    "address": "Athens TN 37303",
    "name": "McMinn County Schools",
    "parentVueUrl": "HTTPS://sis-psvue2.tnk12.gov/MCCS",
    "latitude": 35.424641,
    "longitude": -84.6269824
  },
  {
    "address": "Selmer TN 38375",
    "name": "McNairy County Schools",
    "parentVueUrl": "https://psv-mcnairy.tnk12.gov/mcn",
    "latitude": 35.1700834,
    "longitude": -88.59227039999999
  },
  {
    "address": "El Centro CA 23219",
    "name": "Meadows Union ESD",
    "parentVueUrl": "https://sdhome.sdcoe.net/meadows",
    "latitude": 32.792,
    "longitude": -115.5630514
  },
  {
    "address": "Medford  97501",
    "name": "Medford School District",
    "parentVueUrl": "https://or-med-psv.edupoint.com",
    "latitude": 42.2855796,
    "longitude": -122.886705
  },
  {
    "address": "Decatur TN 37322",
    "name": "Meigs County Schools",
    "parentVueUrl": "HTTPS://sis-psvue2.tnk12.gov/MCS",
    "latitude": 35.5147939,
    "longitude": -84.7902223
  },
  {
    "address": "Melrose MN 56352",
    "name": "Melrose Public Schools",
    "parentVueUrl": "https://rt2.region1.k12.mn.us/rt0740",
    "latitude": 45.6746873,
    "longitude": -94.8075152
  },
  {
    "address": "Grand Junction CO 81501",
    "name": "Mesa County Valley School District No.51",
    "parentVueUrl": "https://sis.d51schools.org",
    "latitude": 39.075059,
    "longitude": -108.5522531
  },
  {
    "address": "Mesa AZ 85201-7422",
    "name": "Mesa Public Schools",
    "parentVueUrl": "https://parent.mpsaz.org",
    "latitude": 33.4329528,
    "longitude": -111.8449346
  },
  {
    "address": "St. Paul MN 55108",
    "name": "Metro Deaf School",
    "parentVueUrl": "https://pvue5.region1.k12.mn.us/rt4005",
    "latitude": 44.9790183,
    "longitude": -93.18557349999999
  },
  {
    "address": "Mifflinburg PA 17844",
    "name": "Mifflinburg Area School District",
    "parentVueUrl": "https://pa-miff-psv.edupoint.com",
    "latitude": 40.917582,
    "longitude": -77.0477501
  },
  {
    "address": "Milaca MN 56353",
    "name": "Milaca Public Schools",
    "parentVueUrl": "https://rt4.region1.k12.mn.us/rt0912",
    "latitude": 45.755799,
    "longitude": -93.6544079
  },
  {
    "address": "Milan TN 38358",
    "name": "Milan Special School District",
    "parentVueUrl": "https://psv-milan.tnk12.gov/mil",
    "latitude": 35.9197885,
    "longitude": -88.7589488
  },
  {
    "address": "Omaha NE 68137",
    "name": "Millard Public Schools",
    "parentVueUrl": "https://ne-mps-psv.edupoint.com",
    "latitude": 41.203996,
    "longitude": -96.11559319999999
  },
  {
    "address": "Millbrae CA 94030",
    "name": "Millbrae School District",
    "parentVueUrl": "https://ca-mesd-pvue.edupoint.com",
    "latitude": 37.5958949,
    "longitude": -122.4184108
  },
  {
    "address": "Milton-Freewater OR 97862",
    "name": "Milton-Freewater Unified School District",
    "parentVueUrl": "https://or-mfusd.edupoint.com/",
    "latitude": 45.9326346,
    "longitude": -118.3877435
  },
  {
    "address": "St. Paul MN 55108",
    "name": "Minnesota Department of Corrections",
    "parentVueUrl": "https://pvue5.region1.k12.mn.us/rt1100",
    "latitude": 44.9790183,
    "longitude": -93.18557349999999
  },
  {
    "address": "Faribault MN 55021",
    "name": "Minnesota State Academies",
    "parentVueUrl": "https://mn0160vue.tiescloud.net/mn0160",
    "latitude": 44.2949636,
    "longitude": -93.268827
  },
  {
    "address": "Glenwood MN 56334",
    "name": "Minnewaska Area Schools",
    "parentVueUrl": "https://rt2.region1.k12.mn.us/rt2149",
    "latitude": 45.6502392,
    "longitude": -95.3900419
  },
  {
    "address": "Camilla GA 31730",
    "name": "Mitchell County School District",
    "parentVueUrl": "https://ga-mcs.edupoint.com/",
    "latitude": 31.2312933,
    "longitude": -84.21046109999999
  },
  {
    "address": "Mitchell OR 97750",
    "name": "Mitchell School District",
    "parentVueUrl": "https://or-msd.edupoint.com",
    "latitude": 44.566525,
    "longitude": -120.153341
  },
  {
    "address": "Maricopa AZ 85139",
    "name": "Mobile Elementary School District #86",
    "parentVueUrl": "https://az-mesd86.edupoint.com/",
    "latitude": 33.0581063,
    "longitude": -112.0476423
  },
  {
    "address": "Bullhead City AZ 86442",
    "name": "Mohave Accelerated Schools",
    "parentVueUrl": "https://malc.apscc.org",
    "latitude": 35.0771847,
    "longitude": -114.5599015
  },
  {
    "address": "Mohave Valley AZ 86440",
    "name": "Mohave Valley Elementary School District #16",
    "parentVueUrl": "https://mvesd.apscc.org",
    "latitude": 34.9330585,
    "longitude": -114.5888533
  },
  {
    "address": "Roll AZ 85347",
    "name": "Mohawk Valley School District No. 17",
    "parentVueUrl": "https://mohawk.apscc.org",
    "latitude": 32.7517127,
    "longitude": -113.9890993
  },
  {
    "address": "Molalla OR 97038",
    "name": "Molalla River School District",
    "parentVueUrl": "https://synergy.clackesd.k12.or.us/MRSD/",
    "latitude": 45.1475439,
    "longitude": -122.5771264
  },
  {
    "address": "Madisonville TN 37354",
    "name": "Monroe County Schools",
    "parentVueUrl": "HTTPS://sis-psvue2.tnk12.gov/MONCS",
    "latitude": 35.5197984,
    "longitude": -84.3635338
  },
  {
    "address": "Montebello CA 90640-4721",
    "name": "Montebello Unified School district",
    "parentVueUrl": "https://ca-musd.edupoint.com",
    "latitude": 34.0149091,
    "longitude": -118.1064156
  },
  {
    "address": "Monterey CA 93942",
    "name": "Monterey Peninsula Unified School District",
    "parentVueUrl": "https://ca-mpusd-psv.edupoint.com",
    "latitude": 36.61,
    "longitude": -121.9
  },
  {
    "address": "Paradise Valley AZ 85253",
    "name": "Montessori Academy Inc",
    "parentVueUrl": "https://az-mai.edupoint.com/",
    "latitude": 33.5388471,
    "longitude": -111.9641728
  },
  {
    "address": "Rockville MD 20850",
    "name": "Montgomery County Public Schools",
    "parentVueUrl": "https://md-mcps-psv.edupoint.com",
    "latitude": 39.0839994,
    "longitude": -77.1527813
  },
  {
    "address": "Montrose MI 48457",
    "name": "Montrose Community Schools",
    "parentVueUrl": "https://studentvue.geneseeisd.org/Mont",
    "latitude": 43.1766935,
    "longitude": -83.8927439
  },
  {
    "address": "Monument OR 97864",
    "name": "Monument School District",
    "parentVueUrl": "https://or-mosd.edupoint.com/",
    "latitude": 44.819314,
    "longitude": -119.4211007
  },
  {
    "address": "Mora MN 55051",
    "name": "Mora Public Schools",
    "parentVueUrl": "https://rt2.region1.k12.mn.us/rt0332",
    "latitude": 45.8769031,
    "longitude": -93.29383519999999
  },
  {
    "address": "Morenci AZ 85540",
    "name": "Morenci Unified School District #18",
    "parentVueUrl": "https://morenci.apscc.org",
    "latitude": 33.0508859,
    "longitude": -109.3280282
  },
  {
    "address": "Twentynine Palms CA 92277",
    "name": "Morongo Unified School District",
    "parentVueUrl": "https://ca-mor-psv.edupoint.com/",
    "latitude": 34.1355582,
    "longitude": -116.0541689
  },
  {
    "address": "Morristown AZ 85342-0098",
    "name": "Morristown Elementary School District",
    "parentVueUrl": "https://az-mesd.edupoint.com/",
    "latitude": 33.8548374,
    "longitude": -112.6203255
  },
  {
    "address": "Flint Township MI 48503",
    "name": "Mott Middle College",
    "parentVueUrl": "https://studentvue.geneseeisd.org/GMMC",
    "latitude": 43.0145534,
    "longitude": -83.6720756
  },
  {
    "address": "Shoreview MN 55126",
    "name": "Mounds View Public Schools",
    "parentVueUrl": "https://MN-MVPS-PSV.edupoint.com",
    "latitude": 45.0791325,
    "longitude": -93.14716670000001
  },
  {
    "address": "Ontario CA 91761",
    "name": "Mountain View School District",
    "parentVueUrl": "https://ca-mtv.edupoint.com/",
    "latitude": 34.0348144,
    "longitude": -117.5848025
  },
  {
    "address": "Mt Morris MI 48458",
    "name": "Mt. Morris Consolidated Schools",
    "parentVueUrl": "https://studentvue.geneseeisd.org/Mtmr",
    "latitude": 43.1186374,
    "longitude": -83.6949583
  },
  {
    "address": "Brawley CA 92227",
    "name": "Mulberry School",
    "parentVueUrl": "https://sdhome.sdcoe.net/Mulberry",
    "latitude": 32.9786566,
    "longitude": -115.530267
  },
  {
    "address": "Portland OR 97220",
    "name": "Multnomah Education Service District",
    "parentVueUrl": "https://student-mesd.cascadetech.org/mesd",
    "latitude": 45.5517361,
    "longitude": -122.5522483
  },
  {
    "address": "Phoenix AZ 85009",
    "name": "Murphy School District",
    "parentVueUrl": "https://az-msd.edupoint.com",
    "latitude": 33.4438042,
    "longitude": -112.1310986
  },
  {
    "address": "National City CA 91950",
    "name": "National School District",
    "parentVueUrl": "https://nsd.edupoint.com",
    "latitude": 32.6721599,
    "longitude": -117.0970596
  },
  {
    "address": "Holbrook AZ 86025",
    "name": "Navajo County Accommodation District #9",
    "parentVueUrl": "https://az-ncad9.edupoint.com/",
    "latitude": 34.9022482,
    "longitude": -110.1581768
  },
  {
    "address": "Rockaway Beach OR 97136",
    "name": "Neah-Kah-Nie School District",
    "parentVueUrl": "https://student-neahkahnie.cascadetech.org/neahkahnie",
    "latitude": 45.613438,
    "longitude": -123.9429114
  },
  {
    "address": "Cloverdale OR 97112",
    "name": "Nestucca Valley School District",
    "parentVueUrl": "https://student-nestuccavalley.cascadetech.org/nestuccavalley",
    "latitude": 45.2055135,
    "longitude": -123.8879045
  },
  {
    "address": "Nevada City CA 95959",
    "name": "Nevada City School of the Arts",
    "parentVueUrl": "https://ca-ncsa.edupoint.com",
    "latitude": 39.2615606,
    "longitude": -121.0160594
  },
  {
    "address": "Grass Valley CA 95945",
    "name": "Nevada County Office of Education",
    "parentVueUrl": "https://ca-njuk8.edupoint.com",
    "latitude": 39.2190608,
    "longitude": -121.0610606
  },
  {
    "address": "Grass Valley CA 95945",
    "name": "Nevada County Superintendent of Schools",
    "parentVueUrl": "https://ca-ncsos.edupoint.com",
    "latitude": 39.2190608,
    "longitude": -121.0610606
  },
  {
    "address": "Grass Valley CA 95945",
    "name": "Nevada Joint Union High School District",
    "parentVueUrl": "https://ca-nju.edupoint.com/",
    "latitude": 39.2190608,
    "longitude": -121.0610606
  },
  {
    "address": "Nevis MN 56467",
    "name": "Nevis Public School",
    "parentVueUrl": "https://rt3.region1.k12.mn.us/rt0308",
    "latitude": 46.9652363,
    "longitude": -94.83945650000001
  },
  {
    "address": "New Hyde Park NY 11040",
    "name": "New Hyde Park - Garden City Park UFSD",
    "parentVueUrl": "https://ny-nhp-psv.edupoint.com",
    "latitude": 40.7351018,
    "longitude": -73.6879082
  },
  {
    "address": "New York Mills MN 56567",
    "name": "New York Mills ISD #553",
    "parentVueUrl": "https://rt2.region1.k12.mn.us/rt0553",
    "latitude": 46.518016,
    "longitude": -95.37614649999999
  },
  {
    "address": "Newark CA 94560",
    "name": "Newark Unified School District",
    "parentVueUrl": "https://vue.newarkunified.org/PXP",
    "latitude": 37.5299765,
    "longitude": -122.0383968
  },
  {
    "address": "Newberg OR 97132",
    "name": "Newberg School District",
    "parentVueUrl": "https://student-newberg.cascadetech.org/newberg",
    "latitude": 45.3003268,
    "longitude": -122.9761318
  },
  {
    "address": "Newport News VA 23606-3041",
    "name": "Newport News Public Schools",
    "parentVueUrl": "https://parentvue.nn.k12.va.us",
    "latitude": 37.0672839,
    "longitude": -76.514138
  },
  {
    "address": "Norfolk VA 23510-2723",
    "name": "Norfolk Public Schools",
    "parentVueUrl": "https://va-nps-psv.edupoint.com",
    "latitude": 36.8500234,
    "longitude": -76.2899071
  },
  {
    "address": "Twin Valley MN 56584",
    "name": "Norman County East Schools",
    "parentVueUrl": "https://rt3.region1.k12.mn.us/rt2215",
    "latitude": 47.26024049999999,
    "longitude": -96.2589476
  },
  {
    "address": "North Bend OR 97459",
    "name": "North Bend School District 13",
    "parentVueUrl": "https://portal.nbend.k12.or.us",
    "latitude": 43.4065012,
    "longitude": -124.2242803
  },
  {
    "address": "North Branch MN 55056",
    "name": "North Branch Area Public Schools",
    "parentVueUrl": "https://pvue9.region1.k12.mn.us/rt0138",
    "latitude": 45.5102135,
    "longitude": -92.99310539999999
  },
  {
    "address": "Milwaukie OR 97222",
    "name": "North Clackamas Schools",
    "parentVueUrl": "https://synergy.clackesd.k12.or.us/NCSD/",
    "latitude": 45.4485068,
    "longitude": -122.628611
  },
  {
    "address": "Vista CA 92083",
    "name": "North County Trade Tech High School",
    "parentVueUrl": "https://sdhome.sdcoe.net/nctt",
    "latitude": 33.2013734,
    "longitude": -117.2529145
  },
  {
    "address": "Moss Landing CA 95039",
    "name": "North Monterey County Unified School District",
    "parentVueUrl": "https://ca-nmcusd.edupoint.com",
    "latitude": 36.8044003,
    "longitude": -121.7868953
  },
  {
    "address": "North Powder OR 97867",
    "name": "North Powder School District",
    "parentVueUrl": "https://parent-northpowder.cascadetech.org/northpowder/",
    "latitude": 45.0284737,
    "longitude": -117.9199386
  },
  {
    "address": "Duluth MN 55804",
    "name": "North Shore Community School",
    "parentVueUrl": "https://rt4.region1.k12.mn.us/rt4084",
    "latitude": 46.94468149999999,
    "longitude": -91.9407488
  },
  {
    "address": "Phoenix AZ 85037",
    "name": "North Star Charter School Inc",
    "parentVueUrl": "https://az-nscsi.edupoint.com/",
    "latitude": 33.4895398,
    "longitude": -112.256285
  },
  {
    "address": "McKinleyville CA 95519",
    "name": "Northern Humboldt Union High School District",
    "parentVueUrl": "https://ca-nhu.edupoint.com",
    "latitude": 40.9373196,
    "longitude": -124.0312662
  },
  {
    "address": "Bothell WA 98021",
    "name": "Northshore School District No. 417",
    "parentVueUrl": "https://wa-nor-psv.edupoint.com",
    "latitude": 47.7972338,
    "longitude": -122.2029132
  },
  {
    "address": "Grand Rapids MI 49525",
    "name": "Northview Public Schools",
    "parentVueUrl": "https://spportal.westmihosting.com/nvps_pxp",
    "latitude": 43.03149560000001,
    "longitude": -85.58179109999999
  },
  {
    "address": "Hillsboro OR 97124",
    "name": "Northwest Regional Education Service District",
    "parentVueUrl": "https://student-nwresd.cascadetech.org/nwresd",
    "latitude": 45.5442824,
    "longitude": -122.9521023
  },
  {
    "address": "Nyssa OR 97913",
    "name": "Nyssa School District",
    "parentVueUrl": "https://or-nsd.edupoint.com/",
    "latitude": 43.8768289,
    "longitude": -116.9948804
  },
  {
    "address": "Portage MI 49024",
    "name": "Oakland Academy",
    "parentVueUrl": "https://studentvue.geneseeisd.org/oca",
    "latitude": 42.2121034,
    "longitude": -85.62292959999999
  },
  {
    "address": "Union City TN 38261",
    "name": "Obion County Schools",
    "parentVueUrl": "HTTPS://sis-psvue1.tnk12.gov/OCS",
    "latitude": 36.4242303,
    "longitude": -89.0570096
  },
  {
    "address": "Brooklyn Center MN 55429",
    "name": "Odyssey Academy",
    "parentVueUrl": "https://mn4030vue.tiescloud.net/mn4030",
    "latitude": 45.0726035,
    "longitude": -93.34292169999999
  },
  {
    "address": "Buckeye AZ 85326",
    "name": "Odyssey Preparatory Academy",
    "parentVueUrl": "https://opa.edupoint.com",
    "latitude": 33.3072204,
    "longitude": -112.5721881
  },
  {
    "address": "Ogilvie MN 56358",
    "name": "Ogilvie Public School District",
    "parentVueUrl": "https://mn0333vue.tiescloud.net/mn0333",
    "latitude": 45.83218249999999,
    "longitude": -93.4263416
  },
  {
    "address": "Olathe KS 66063",
    "name": "Olathe Public Schools",
    "parentVueUrl": "https://parentvue.olatheschools.com",
    "latitude": 38.88,
    "longitude": -94.8199999
  },
  {
    "address": "Onamia MN 56359",
    "name": "Onamia ISD #480",
    "parentVueUrl": "https://pvue10.region1.k12.mn.us/rt0480",
    "latitude": 46.07051509999999,
    "longitude": -93.6677455
  },
  {
    "address": "Ontario  97914",
    "name": "Ontario School District",
    "parentVueUrl": "https://or-ont.edupoint.com/",
    "latitude": 44.0265525,
    "longitude": -116.9629378
  },
  {
    "address": "Marana AZ 85653",
    "name": "Open Doors Community School",
    "parentVueUrl": "https://opendoors.apscc.org/",
    "latitude": 32.436381,
    "longitude": -111.2224422
  },
  {
    "address": "Oregon City OR 97045",
    "name": "Oregon City School District",
    "parentVueUrl": "https://synergy.clackesd.k12.or.us/OCSD/",
    "latitude": 45.3556099,
    "longitude": -122.605853
  },
  {
    "address": "Salem OR 97310-0203",
    "name": "Oregon Department of Education",
    "parentVueUrl": "https://OR-ODE.edupoint.com",
    "latitude": 44.9227199,
    "longitude": -122.9969319
  },
  {
    "address": "Salem OR 97301",
    "name": "Oregon School for the Deaf",
    "parentVueUrl": "https://or-osd.edupoint.com",
    "latitude": 44.9464822,
    "longitude": -123.0018941
  },
  {
    "address": "Sandy OR 97055",
    "name": "Oregon Trail School District",
    "parentVueUrl": "https://synergy.clackesd.k12.or.us/OTSD/",
    "latitude": 45.3973141,
    "longitude": -122.2630704
  },
  {
    "address": "Long Lake MN 55356",
    "name": "Orono Public Schools",
    "parentVueUrl": "https://pvue10.region1.k12.mn.us/rt0278",
    "latitude": 44.9866298,
    "longitude": -93.5716243
  },
  {
    "address": "Phoenix AZ 85013",
    "name": "Osborn School District #8",
    "parentVueUrl": "https://genesis.osbornnet.org/production",
    "latitude": 33.5080943,
    "longitude": -112.0863874
  },
  {
    "address": "North Maple Grove MN 55369",
    "name": "Osseo Area Schools",
    "parentVueUrl": "https://MN-OAS-psv.edupoint.com",
    "latitude": 45.1255339,
    "longitude": -93.45091239999999
  },
  {
    "address": "Oswego NY 13126",
    "name": "Oswego City School District",
    "parentVueUrl": "https://ny-ocsd-psv.edupoint.com",
    "latitude": 43.4553461,
    "longitude": -76.5104973
  },
  {
    "address": "Oxnard CA 93030",
    "name": "Oxnard Union High School District",
    "parentVueUrl": "https://ca-oxn-psv.edupoint.com",
    "latitude": 34.2054029,
    "longitude": -119.1681373
  },
  {
    "address": "Tolleson AZ 85353",
    "name": "PLC Charter Schools",
    "parentVueUrl": "https://plc.apscc.org",
    "latitude": 33.4500425,
    "longitude": -112.259321
  },
  {
    "address": "Pacific Grove CA 93950",
    "name": "Pacific Grove Unified School District",
    "parentVueUrl": "https://ca-pgusd.edupoint.com",
    "latitude": 36.62011800000001,
    "longitude": -121.918866
  },
  {
    "address": "Pacifica CA 94044-3042",
    "name": "Pacifica School District",
    "parentVueUrl": "https://synergy.pacificasd.org/",
    "latitude": 37.6101767,
    "longitude": -122.4806894
  },
  {
    "address": "Watsonville CA 95076",
    "name": "Pajaro Valley Unified School District",
    "parentVueUrl": "https://ca-pvusd-psv.edupoint.com",
    "latitude": 36.910231,
    "longitude": -121.7568946
  },
  {
    "address": "Palm Springs CA 92264",
    "name": "Palm Springs Unified School District",
    "parentVueUrl": "https://pvue.psusd.us",
    "latitude": 33.7553867,
    "longitude": -116.5373923
  },
  {
    "address": "Palo Verde AZ 85343",
    "name": "Palo Verde Elementary School District",
    "parentVueUrl": "https://paloverde.apscc.org",
    "latitude": 33.3483711,
    "longitude": -112.6777087
  },
  {
    "address": "Gila Bend AZ 85337",
    "name": "Paloma Elementary School Disrict",
    "parentVueUrl": "https://paloma.apscc.org",
    "latitude": 32.9478236,
    "longitude": -112.7168305
  },
  {
    "address": "Hereford AZ 85615",
    "name": "Palominas Elementary School District",
    "parentVueUrl": "https://palominas.apscc.org",
    "latitude": 31.43843249999999,
    "longitude": -110.0978554
  },
  {
    "address": "Phoenix AZ 85037",
    "name": "Pan American Charter School",
    "parentVueUrl": "https://az-pan.edupoint.com",
    "latitude": 33.4895398,
    "longitude": -112.256285
  },
  {
    "address": "Bakersfield CA 93313",
    "name": "Panama-Buena Vista Union School District",
    "parentVueUrl": "https://ca-pbvusd-psv.edupoint.com",
    "latitude": 35.1090685,
    "longitude": -119.0227159
  },
  {
    "address": "Paramount CA 90723",
    "name": "Paramount Unified School District",
    "parentVueUrl": "https://parentvue.paramount.k12.ca.us/",
    "latitude": 33.89777370000001,
    "longitude": -118.1649291
  },
  {
    "address": "Parchment MI 49004",
    "name": "Parchment School District",
    "parentVueUrl": "https://studentvue.geneseeisd.org/psd",
    "latitude": 42.3280952,
    "longitude": -85.5697296
  },
  {
    "address": "Park Rapids MN 56470",
    "name": "Park Rapids Area Schools",
    "parentVueUrl": "https://rt3.region1.k12.mn.us/rt0309",
    "latitude": 46.9221813,
    "longitude": -95.05863219999999
  },
  {
    "address": "Parker AZ 85344",
    "name": "Parker Unified School District",
    "parentVueUrl": "https://parker.apscc.org",
    "latitude": 34.1500162,
    "longitude": -114.2891177
  },
  {
    "address": "Portland OR 97220",
    "name": "Parkrose School District",
    "parentVueUrl": "https://student-parkrose.cascadetech.org/parkrose",
    "latitude": 45.5517361,
    "longitude": -122.5522483
  },
  {
    "address": "Paw Paw MI 49079",
    "name": "Paw Paw Public Schools",
    "parentVueUrl": "http://synergypvue.micase.org/pps",
    "latitude": 42.2178171,
    "longitude": -85.89112460000001
  },
  {
    "address": "Peach Springs AZ 86434",
    "name": "Peach Springs Elementary School District",
    "parentVueUrl": "https://peachsprings.apscc.org",
    "latitude": 35.5291589,
    "longitude": -113.425491
  },
  {
    "address": "Phoenix AZ 85037",
    "name": "Pendergast Elementary School District",
    "parentVueUrl": "http://pvue.pesd92.org",
    "latitude": 33.4895398,
    "longitude": -112.256285
  },
  {
    "address": "Pendleton OR 97801",
    "name": "Pendleton School District #16",
    "parentVueUrl": "https://student-pendleton.cascadetech.org/pendleton/",
    "latitude": 45.672075,
    "longitude": -118.7885967
  },
  {
    "address": "Glendale AZ 85306",
    "name": "Peoria Unified School District",
    "parentVueUrl": "https://synergylive.pusd11.net",
    "latitude": 33.6222797,
    "longitude": -112.1728283
  },
  {
    "address": "Collegeville PA 19426",
    "name": "Perkiomen Valley School District",
    "parentVueUrl": "https://parentvue.pvsd.org",
    "latitude": 40.1856597,
    "longitude": -75.451571
  },
  {
    "address": "Linden TN 37096",
    "name": "Perry County Schools",
    "parentVueUrl": "https://psv-perry.tnk12.gov/per",
    "latitude": 35.6172917,
    "longitude": -87.8394704
  },
  {
    "address": "Phoenix AZ 85016",
    "name": "Phoenix Advantage Charter School",
    "parentVueUrl": "https://az-pac.edupoint.com",
    "latitude": 33.5106684,
    "longitude": -112.029752
  },
  {
    "address": "Phoenix AZ 85006-2156",
    "name": "Phoenix Elementary School District #1",
    "parentVueUrl": "https://synergy.phxschools.org/",
    "latitude": 33.46360120000001,
    "longitude": -112.0535987
  },
  {
    "address": "Phoenix AZ 85012",
    "name": "Phoenix Modern Charter",
    "parentVueUrl": "https://phoenixmodern.apscc.org",
    "latitude": 33.5114334,
    "longitude": -112.0685027
  },
  {
    "address": "Phoenix AZ 85012",
    "name": "Phoenix Union High School District",
    "parentVueUrl": "https://studentvue.phoenixunion.org",
    "latitude": 33.5114334,
    "longitude": -112.0685027
  },
  {
    "address": "Pierz MN 56364",
    "name": "Pierz School District 484",
    "parentVueUrl": "https://rt3.region1.k12.mn.us/rt0484",
    "latitude": 45.9816318,
    "longitude": -94.1047124
  },
  {
    "address": "Pilot Rock OR 97868",
    "name": "Pilot Rock School District",
    "parentVueUrl": "https://parent-pilotrock.cascadetech.org/pilotrock/",
    "latitude": 45.4831849,
    "longitude": -118.8299848
  },
  {
    "address": "Pine City MN 55063",
    "name": "Pine City Public Schools",
    "parentVueUrl": "https://pvue9.region1.k12.mn.us/rt0578",
    "latitude": 45.8229105,
    "longitude": -92.9703435
  },
  {
    "address": "Drewsey OR 97904",
    "name": "Pine Creek Elementary School",
    "parentVueUrl": "https://or-hesd.edupoint.com",
    "latitude": 43.8071385,
    "longitude": -118.3786823
  },
  {
    "address": "Pine AZ 85544",
    "name": "Pine Strawberry School District #12",
    "parentVueUrl": "https://pine.apscc.org",
    "latitude": 34.3844739,
    "longitude": -111.4551407
  },
  {
    "address": "Phoenix AZ 85033",
    "name": "Pioneer Preparatory School",
    "parentVueUrl": "https://az-pps.edupoint.com",
    "latitude": 33.4943072,
    "longitude": -112.2026347
  },
  {
    "address": "Pipestone MN 56164",
    "name": "Pipestone Area Schools",
    "parentVueUrl": "https://pvue7.region1.k12.mn.us/rt2689",
    "latitude": 43.9985815,
    "longitude": -96.3128117
  },
  {
    "address": "Benton TN 37307",
    "name": "Polk County Schools",
    "parentVueUrl": "HTTPS://sis-psvue2.tnk12.gov/PCS",
    "latitude": 35.1742411,
    "longitude": -84.6535468
  },
  {
    "address": "Portland OR 97227",
    "name": "Portland Public Schools",
    "parentVueUrl": "https://student-portland.cascadetech.org/portland",
    "latitude": 45.5461375,
    "longitude": -122.6766628
  },
  {
    "address": "Fort Collins CO 80521",
    "name": "Poudre School District",
    "parentVueUrl": "https://svue.psdschools.org",
    "latitude": 40.5889664,
    "longitude": -105.1375908
  },
  {
    "address": "San Diego CA 92128-3406",
    "name": "Poway Unified School District",
    "parentVueUrl": "https://sis.powayusd.com",
    "latitude": 33.0013938,
    "longitude": -117.0735241
  },
  {
    "address": "Prairie City OR 97869",
    "name": "Prairie City School District",
    "parentVueUrl": "https://or-pcsd.edupoint.com/",
    "latitude": 44.46321349999999,
    "longitude": -118.7099477
  },
  {
    "address": "86314",
    "name": "Prescott Valley Charter School",
    "parentVueUrl": "https://pvcs.apscc.org",
    "latitude": 34.6062718,
    "longitude": -112.3099336
  },
  {
    "address": "Occoquan VA 22125",
    "name": "Prince William County Public Schools",
    "parentVueUrl": "https://va-pwcps-psv.edupoint.com",
    "latitude": 38.683901,
    "longitude": -77.2602713
  },
  {
    "address": "Ehrenberg AZ 85334",
    "name": "Quartzsite School District #4",
    "parentVueUrl": "https://quartzsite.apscc.org",
    "latitude": 33.6041914,
    "longitude": -114.5252322
  },
  {
    "address": "Queen Creek AZ 85142",
    "name": "Queen Creek Unified School District",
    "parentVueUrl": "https://qcsvue.apscc.org",
    "latitude": 33.2028363,
    "longitude": -111.642224
  },
  {
    "address": "Rainbow CA 92028",
    "name": "RAI Online Charter School",
    "parentVueUrl": "https://sdhome.sdcoe.net/RAI",
    "latitude": 33.4103082,
    "longitude": -117.1478096
  },
  {
    "address": "Buxton ME 04093",
    "name": "RSU #6 Bonny Eagle",
    "parentVueUrl": "https://me-bea-psv.edupoint.com",
    "latitude": 43.6338397,
    "longitude": -70.5416279
  },
  {
    "address": "North Anson ME 04958",
    "name": "RSU #74",
    "parentVueUrl": "https://me-rsu74.edupoint.com",
    "latitude": 44.8564574,
    "longitude": -69.8973948
  },
  {
    "address": "Waterboro ME 04087",
    "name": "RSU No. 57 Waterboro",
    "parentVueUrl": "https://me-wat.edupoint.com/",
    "latitude": 43.544384,
    "longitude": -70.72569639999999
  },
  {
    "address": "Seattle WA 98168",
    "name": "Rainier Prep",
    "parentVueUrl": "https://wa-rai.edupoint.com",
    "latitude": 47.4886652,
    "longitude": -122.295521
  },
  {
    "address": "Rainier OR 97048",
    "name": "Rainier School District",
    "parentVueUrl": "https://student-rainier.cascadetech.org/rainier",
    "latitude": 46.0891348,
    "longitude": -122.9359776
  },
  {
    "address": "Oklee MN 56742",
    "name": "Red Lake County Central Schools",
    "parentVueUrl": "https://rt2.region1.k12.mn.us/rtRLCC",
    "latitude": 47.8391273,
    "longitude": -95.8544701
  },
  {
    "address": "Red Lake MN 56671",
    "name": "Red Lake Schools",
    "parentVueUrl": "https://rt1.region1.k12.mn.us/rt0038",
    "latitude": 47.876346,
    "longitude": -95.0169401
  },
  {
    "address": "Red Wing MN 55066",
    "name": "Red Wing Public Schools",
    "parentVueUrl": "https://pvue10.region1.k12.mn.us/rt0256",
    "latitude": 44.5027689,
    "longitude": -92.55942139999999
  },
  {
    "address": "New Bethlehem PA 16242",
    "name": "Redbank Valley School District",
    "parentVueUrl": "https://pa-rvsd-psv.edupoint.com",
    "latitude": 41.0017319,
    "longitude": -79.3314297
  },
  {
    "address": "Redmond OR 97756-8426",
    "name": "Redmond School District",
    "parentVueUrl": "https://or-hi-psv.edupoint.com",
    "latitude": 44.2726203,
    "longitude": -121.1739212
  },
  {
    "address": "Kalamazoo MI 49006",
    "name": "Reformed Heritage Christian School",
    "parentVueUrl": "https://studentvue.geneseeisd.org/rhc",
    "latitude": 42.3010755,
    "longitude": -85.63320929999999
  },
  {
    "address": "Phoenix AZ 85023",
    "name": "Reid Traditional Schools",
    "parentVueUrl": "https://az-rts.edupoint.com",
    "latitude": 33.6272938,
    "longitude": -112.0893682
  },
  {
    "address": "Fairview OR 97024",
    "name": "Reynolds School District",
    "parentVueUrl": "https://student-reynolds.cascadetech.org/reynolds",
    "latitude": 45.5399731,
    "longitude": -122.4335957
  },
  {
    "address": "Rialto CA 92376",
    "name": "Rialto Unified School District",
    "parentVueUrl": "https://pvue.rialto.k12.ca.us",
    "latitude": 34.1064001,
    "longitude": -117.3703235
  },
  {
    "address": "Richfield MN 55423",
    "name": "Richfield Public Schools",
    "parentVueUrl": "https://pvue8.region1.k12.mn.us/rt0280",
    "latitude": 44.8735964,
    "longitude": -93.2835137
  },
  {
    "address": "Santa Rosa CA 95405",
    "name": "Rincon Valley Union School District",
    "parentVueUrl": "https://ca-rvusd.edupoint.com",
    "latitude": 38.43922999999999,
    "longitude": -122.6673018
  },
  {
    "address": "Portland OR 97219",
    "name": "Riverdale School District",
    "parentVueUrl": "https://student-riverdale.cascadetech.org/riverdale",
    "latitude": 45.4618086,
    "longitude": -122.7181902
  },
  {
    "address": "Phoenix AZ 85043",
    "name": "Riverside Elementary School District",
    "parentVueUrl": "https://az-resd2.edupoint.com",
    "latitude": 33.4304026,
    "longitude": -112.2026347
  },
  {
    "address": "Kingston TN 37763",
    "name": "Roane County Schools",
    "parentVueUrl": "HTTPS://sis-psvue2.tnk12.gov/RCS",
    "latitude": 35.8809084,
    "longitude": -84.5085447
  },
  {
    "address": "Raonoke City VA 24012",
    "name": "Roanoke City Public Schools",
    "parentVueUrl": "https://synergypsv.rcps.info",
    "latitude": 37.3172783,
    "longitude": -79.8912813
  },
  {
    "address": "Roanoke VA 24019",
    "name": "Roanoke County Public Schools",
    "parentVueUrl": "https://va-roan-psv.edupoint.com/",
    "latitude": 37.3490124,
    "longitude": -79.95284509999999
  },
  {
    "address": "Rochester MI 48307",
    "name": "Rochester Community Schools",
    "parentVueUrl": "https://rcsvue.rochester.k12.mi.us/",
    "latitude": 42.66789139999999,
    "longitude": -83.13273319999999
  },
  {
    "address": "Phoenix AZ 85042",
    "name": "Roosevelt School District 66",
    "parentVueUrl": "https://az-rsd-psv.edupoint.com",
    "latitude": 33.3762931,
    "longitude": -112.0357137
  },
  {
    "address": "Roseburg OR 97471",
    "name": "Roseburg Public Schools",
    "parentVueUrl": "https://student-roseburg.cascadetech.org/roseburg",
    "latitude": 43.216505,
    "longitude": -123.3417381
  },
  {
    "address": "Bakersfield CA 93312",
    "name": "Rosedale Union School District",
    "parentVueUrl": "https://ca-rusd-psv.edupoint.com/",
    "latitude": 35.3734151,
    "longitude": -119.1274334
  },
  {
    "address": "Rosemount MN 55068",
    "name": "Rosemount-Apple Valley-Eagan Public Schools",
    "parentVueUrl": "https://mn0196vue.tiescloud.net/mn0196",
    "latitude": 44.7394103,
    "longitude": -93.12577230000001
  },
  {
    "address": "Roseville MN 55113",
    "name": "Roseville Area Schools",
    "parentVueUrl": "https://pvue.isd623.org/",
    "latitude": 45.0060767,
    "longitude": -93.15661070000002
  },
  {
    "address": "Rothsay MN 56579",
    "name": "Rothsay Public Schools",
    "parentVueUrl": "https://rt2.region1.k12.mn.us/rt0850",
    "latitude": 46.4733333,
    "longitude": -96.2833333
  },
  {
    "address": "Brewster MN 56119",
    "name": "Round Lake-Brewster Public Schools",
    "parentVueUrl": "https://pvue8.region1.k12.mn.us/rt2907",
    "latitude": 43.698573,
    "longitude": -95.46861530000001
  },
  {
    "address": "Cambridge MN 55008",
    "name": "Rum River Special Education Cooperative",
    "parentVueUrl": "https://pvue5.region1.k12.mn.us/rt6079",
    "latitude": 45.5656755,
    "longitude": -93.2258999
  },
  {
    "address": "Rush City MN 88069",
    "name": "Rush City Public Schools",
    "parentVueUrl": "https://pvue9.region1.k12.mn.us/rt0139",
    "latitude": 45.6855144,
    "longitude": -92.9654903
  },
  {
    "address": "Brooklyn Park MN 55443",
    "name": "SAGE Academy",
    "parentVueUrl": "https://mn4087vue.tiescloud.net/mn4087",
    "latitude": 45.1243266,
    "longitude": -93.3337208
  },
  {
    "address": "Norfolk VA 23502",
    "name": "SECEP Southeastern Cooperative Educational Programs",
    "parentVueUrl": "https://psvue.secep.net",
    "latitude": 36.8574869,
    "longitude": -76.2073525
  },
  {
    "address": "Flagstaff AZ 86004",
    "name": "STAR School",
    "parentVueUrl": "https://az-pddpi.edupoint.com/",
    "latitude": 35.1982836,
    "longitude": -111.651302
  },
  {
    "address": "St. Paul MN 55106",
    "name": "STEP Academy",
    "parentVueUrl": "https://pvue10.region1.k12.mn.us/rt4200",
    "latitude": 44.9687549,
    "longitude": -93.0485951
  },
  {
    "address": "Sacaton AZ 85147",
    "name": "Sacaton Elementary School District #18",
    "parentVueUrl": "https://az-sesd18.edupoint.com/",
    "latitude": 33.0767225,
    "longitude": -111.7392993
  },
  {
    "address": "Salem OR 97305",
    "name": "Salem-Keizer Public Schools",
    "parentVueUrl": "https://sis-portal.salkeiz.k12.or.us",
    "latitude": 45.0144582,
    "longitude": -122.9368525
  },
  {
    "address": "Salinas CA 93901",
    "name": "Salinas Union High School District",
    "parentVueUrl": "https://ca-suhsd-psv.edupoint.com",
    "latitude": 36.6623815,
    "longitude": -121.6454222
  },
  {
    "address": "Sasabe AZ 85633",
    "name": "San Fernando Elementary District",
    "parentVueUrl": "https://az-sfed.edupoint.com/",
    "latitude": 31.4887016,
    "longitude": -111.5420505
  },
  {
    "address": "San Francisco CA 94102",
    "name": "San Francisco Unified School District",
    "parentVueUrl": "https://portal.sfusd.edu/",
    "latitude": 37.7786871,
    "longitude": -122.4212424
  },
  {
    "address": "San Marcos CA 92069",
    "name": "San Marcos Unified School District",
    "parentVueUrl": "https://ca-sanmar-psv.edupoint.com",
    "latitude": 33.1630271,
    "longitude": -117.1617685
  },
  {
    "address": "Escondido CA 92027",
    "name": "San Pasqual Union School District",
    "parentVueUrl": "https://sdhome.sdcoe.net/SanPasqualEl",
    "latitude": 33.1467885,
    "longitude": -117.0087877
  },
  {
    "address": "Winterhaven CA 92283",
    "name": "San Pasqual Valley Unified School District",
    "parentVueUrl": "https://sdhome.sdcoe.net/SanPasqualValley",
    "latitude": 32.739491,
    "longitude": -114.6346751
  },
  {
    "address": "San Ysidro CA 92173",
    "name": "San Ysidro School District",
    "parentVueUrl": "https://ca-sysd.edupoint.com",
    "latitude": 32.5497444,
    "longitude": -117.0382158
  },
  {
    "address": "Sanders AZ 86512",
    "name": "Sanders Unified School District",
    "parentVueUrl": "https://sanders.apscc.org",
    "latitude": 35.2091429,
    "longitude": -109.328794
  },
  {
    "address": "Rio Rico AZ 85648",
    "name": "Santa Cruz Valley Unified School District #35",
    "parentVueUrl": "https://az-scvusd.edupoint.com",
    "latitude": 31.4673632,
    "longitude": -110.9742353
  },
  {
    "address": "Scappoose OR 97056",
    "name": "Scappoose School District",
    "parentVueUrl": "https://student-scappoose.cascadetech.org/scappoose",
    "latitude": 45.7577015,
    "longitude": -122.8780677
  },
  {
    "address": "Lancaster PA 17603",
    "name": "School District of Lancaster",
    "parentVueUrl": "https://pa-lan-psv.edupoint.com",
    "latitude": 40.0144597,
    "longitude": -76.3289941
  },
  {
    "address": "Schoolcraft MI 49087",
    "name": "Schoolcraft Community Schools",
    "parentVueUrl": "https://studentvue.geneseeisd.org/scs",
    "latitude": 42.11421070000001,
    "longitude": -85.63777759999999
  },
  {
    "address": "Scotts Valley CA 95066",
    "name": "Scotts Valley Unified School District",
    "parentVueUrl": "https://ca-svusd.edupoint.com",
    "latitude": 37.0702838,
    "longitude": -122.0155491
  },
  {
    "address": "Scottsdale AZ 85253",
    "name": "Scottsdale Country Day School",
    "parentVueUrl": "https://az-scds.edupoint.com/",
    "latitude": 33.5388471,
    "longitude": -111.9641728
  },
  {
    "address": "Phoenix AZ 85018-5420",
    "name": "Scottsdale Unified School District",
    "parentVueUrl": "https://synergyvue.susd.org",
    "latitude": 33.4962205,
    "longitude": -111.9641728
  },
  {
    "address": "Seaside OR 97138",
    "name": "Seaside School District",
    "parentVueUrl": "https://student-seaside.cascadetech.org/seaside",
    "latitude": 45.9931636,
    "longitude": -123.9226385
  },
  {
    "address": "Sedona AZ 86336",
    "name": "Sedona Charter School",
    "parentVueUrl": "https://AZ-SC.Edupoint.com",
    "latitude": 34.8697395,
    "longitude": -111.7609896
  },
  {
    "address": "Seeley CA 92273",
    "name": "Seeley Union School District",
    "parentVueUrl": "https://sdhome.sdcoe.net/Seeley",
    "latitude": 32.7908378,
    "longitude": -115.6939036
  },
  {
    "address": "St. Paul MN 55104",
    "name": "Sejong Academy",
    "parentVueUrl": "https://pvue8.region1.k12.mn.us/rt4215",
    "latitude": 44.9516643,
    "longitude": -93.16290629999999
  },
  {
    "address": "Seligman AZ 86337",
    "name": "Seligman Unified School District #40",
    "parentVueUrl": "https://seligman.apscc.org",
    "latitude": 35.3255608,
    "longitude": -112.8774057
  },
  {
    "address": "Sentinel AZ 85333",
    "name": "Sentinel Elementary District No. 71",
    "parentVueUrl": "https://sentinel.apscc.org/",
    "latitude": 32.8581047,
    "longitude": -113.2132371
  },
  {
    "address": "Portland OR 97236",
    "name": "Serendipity Center",
    "parentVueUrl": "https://or-ser.edupoint.com/",
    "latitude": 45.4796668,
    "longitude": -122.5146061
  },
  {
    "address": "Coal Township PA 17866",
    "name": "Shamokin Area School District",
    "parentVueUrl": "https://pa-sha-psv.edupoint.com",
    "latitude": 40.7856045,
    "longitude": -76.583499
  },
  {
    "address": "Sharon PA 16146",
    "name": "Sharon City School District",
    "parentVueUrl": "https://pa-scsd-psv.edupoint.com",
    "latitude": 41.2340022,
    "longitude": -80.5049445
  },
  {
    "address": "Moro OR 97039",
    "name": "Sherman County School District",
    "parentVueUrl": "https://or-scsd.edupoint.com",
    "latitude": 45.4840141,
    "longitude": -120.731168
  },
  {
    "address": "Sherwood OR 97140",
    "name": "Sherwood School District",
    "parentVueUrl": "https://student-sherwood.cascadetech.org/sherwood",
    "latitude": 45.3569341,
    "longitude": -122.8410659
  },
  {
    "address": "Shonto AZ 86054",
    "name": "Shonto Preparatory Academy",
    "parentVueUrl": "https://shontoprep.apscc.org",
    "latitude": 36.5882755,
    "longitude": -110.6586087
  },
  {
    "address": "Sierra Vista AZ 85635",
    "name": "Sierra Vista Unified School District",
    "parentVueUrl": "https://svvue.apscc.org/",
    "latitude": 31.58887099999999,
    "longitude": -110.2117373
  },
  {
    "address": "Florence OR 97439",
    "name": "Siuslaw School District 97J",
    "parentVueUrl": "https://slsd.edupoint.com",
    "latitude": 43.9826214,
    "longitude": -124.0998409
  },
  {
    "address": "Phoenix AZ 85042",
    "name": "Skyline Schools Inc",
    "parentVueUrl": "https://az-ssi.edupoint.com/",
    "latitude": 33.3762931,
    "longitude": -112.0357137
  },
  {
    "address": "Prescott AZ 86303",
    "name": "Skyview School",
    "parentVueUrl": "https://az-sky.edupoint.com",
    "latitude": 34.4525009,
    "longitude": -112.4529878
  },
  {
    "address": "Minneapolis MN 55412",
    "name": "Sojourner Truth Academy",
    "parentVueUrl": "https://pvue8.region1.k12.mn.us/rt4038",
    "latitude": 45.022405,
    "longitude": -93.3016169
  },
  {
    "address": "Solomon AZ 85551",
    "name": "Solomon Elementary District",
    "parentVueUrl": "https://az-sed.edupoint.com/",
    "latitude": 32.8141183,
    "longitude": -109.6294831
  },
  {
    "address": "Elgin AZ 85611",
    "name": "Sonoita Elementary School District",
    "parentVueUrl": "https://sonoita.apscc.org/",
    "latitude": 31.6598128,
    "longitude": -110.5253565
  },
  {
    "address": "Gold Canyon AZ 85118",
    "name": "Sonoran Desert School",
    "parentVueUrl": "https://az-sds.edupoint.com",
    "latitude": 33.3593407,
    "longitude": -111.4500302
  },
  {
    "address": "Imperial Beach CA 91932",
    "name": "South Bay Union School District",
    "parentVueUrl": "https://sdhome.sdcoe.net/SouthBay",
    "latitude": 32.5829894,
    "longitude": -117.1205925
  },
  {
    "address": "South Sioux City NE 68776",
    "name": "South Sioux City Community Schools",
    "parentVueUrl": "https://ne-ssccs.edupoint.com",
    "latitude": 42.4648558,
    "longitude": -96.4130601
  },
  {
    "address": "South St. Paul MN 55075",
    "name": "South St. Paul Public Schools",
    "parentVueUrl": "https://pvue10.region1.k12.mn.us/rt0006",
    "latitude": 44.8759802,
    "longitude": -93.0275802
  },
  {
    "address": "Shakopee MN 55379",
    "name": "SouthWest Metro Educational Cooperative",
    "parentVueUrl": "https://pvue5.region1.k12.mn.us/rt0288",
    "latitude": 44.74026749999999,
    "longitude": -93.5205641
  },
  {
    "address": "Minneapolis MN 55419",
    "name": "Southside Family Charter School",
    "parentVueUrl": "https://pvue8.region1.k12.mn.us/rt4162",
    "latitude": 44.9061358,
    "longitude": -93.2885455
  },
  {
    "address": "Portland OR 97239",
    "name": "Southwest Charter School",
    "parentVueUrl": "https://student-odecharter.cascadetech.org/odecharter",
    "latitude": 45.4874111,
    "longitude": -122.6875541
  },
  {
    "address": "Santa Ysabel CA 92070",
    "name": "Spencer Valley Elementary School District",
    "parentVueUrl": "https://sdhome.sdcoe.net/SpencerValley",
    "latitude": 33.1091684,
    "longitude": -116.673794
  },
  {
    "address": "Minneapolis MN 55413",
    "name": "Spero Academy",
    "parentVueUrl": "https://pvue8.region1.k12.mn.us/rt4113",
    "latitude": 44.9956414,
    "longitude": -93.258095
  },
  {
    "address": "Fredericksburg VA 22407",
    "name": "Spotsylvania County Schools",
    "parentVueUrl": "https://parent.spotsylvania.k12.va.us/",
    "latitude": 38.3031837,
    "longitude": -77.4605399
  },
  {
    "address": "Spray OR 97874",
    "name": "Spray School District",
    "parentVueUrl": "https://or-spray.edupoint.com",
    "latitude": 44.8343064,
    "longitude": -119.7944489
  },
  {
    "address": "Springer NM 87747",
    "name": "Springer Municipal Schools",
    "parentVueUrl": "https://nm-sms.edupoint.com/",
    "latitude": 36.36114450000001,
    "longitude": -104.5952668
  },
  {
    "address": "Springfield OR 97477",
    "name": "Springfield Public Schools",
    "parentVueUrl": "https://sv.sps.sis.k12.or.us",
    "latitude": 44.059912,
    "longitude": -123.0179348
  },
  {
    "address": "Stillwater MN 55082",
    "name": "St. Croix Preparatory Academy",
    "parentVueUrl": "https://pvue7.region1.k12.mn.us/rt4120",
    "latitude": 45.056004,
    "longitude": -92.80884429999999
  },
  {
    "address": "St. David AZ 85630",
    "name": "St. David Unified School District #21",
    "parentVueUrl": "https://stdavid.apscc.org",
    "latitude": 31.9042517,
    "longitude": -110.2142399
  },
  {
    "address": "St. Helens OR 97051",
    "name": "St. Helens School District",
    "parentVueUrl": "https://student-sthelens.cascadetech.org/sthelens",
    "latitude": 45.8589637,
    "longitude": -122.8212297
  },
  {
    "address": "Albertville MN 55301",
    "name": "St. Michael-Albertville Schools",
    "parentVueUrl": "https://pvue7.region1.k12.mn.us/rt0885",
    "latitude": 45.2499294,
    "longitude": -93.6711641
  },
  {
    "address": "St. Paul MN 55103",
    "name": "St. Paul City School",
    "parentVueUrl": "https://pvue8.region1.k12.mn.us/rt4029",
    "latitude": 44.9688472,
    "longitude": -93.13156479999999
  },
  {
    "address": "St. Paul MN 55102",
    "name": "St. Paul Conservatory for Performing Arts",
    "parentVueUrl": "https://mn4112vue.tiescloud.net/mn4112",
    "latitude": 44.9343827,
    "longitude": -93.1127413
  },
  {
    "address": "Stafford VA 22554",
    "name": "Stafford County Public Schools",
    "parentVueUrl": "https://psp.staffordschools.net",
    "latitude": 38.4220687,
    "longitude": -77.4083086
  },
  {
    "address": "State College PA 16801",
    "name": "State College Area School District",
    "parentVueUrl": "https://pa-scasd-psv.edupoint.com",
    "latitude": 40.7680563,
    "longitude": -77.8481628
  },
  {
    "address": "Stockton CA 95202",
    "name": "Stockton Unified School District",
    "parentVueUrl": "https://sis.stocktonusd.net",
    "latitude": 37.9573836,
    "longitude": -121.2883857
  },
  {
    "address": "Riley OR 97758",
    "name": "Suntex Elementary School",
    "parentVueUrl": "https://or-hesd.edupoint.com",
    "latitude": 43.541538,
    "longitude": -119.5038422
  },
  {
    "address": "Sutherlin OR 97479",
    "name": "Sutherlin School District",
    "parentVueUrl": "https://student-sutherlin.cascadetech.org/sutherlin",
    "latitude": 43.3901177,
    "longitude": -123.3125763
  },
  {
    "address": "Sweetwater TN 37874",
    "name": "Sweetwater City Schools",
    "parentVueUrl": "HTTPS://sis-psvue2.tnk12.gov/SCS",
    "latitude": 35.6014636,
    "longitude": -84.46103939999999
  },
  {
    "address": "Phoenix AZ 85006",
    "name": "SySTEM Schools Inc",
    "parentVueUrl": "https://az-sysi.edupoint.com/",
    "latitude": 33.46360120000001,
    "longitude": -112.0535987
  },
  {
    "address": "St. Paul MN 55108",
    "name": "TIES - Technology and Information Educational Services",
    "parentVueUrl": "https://vue1.tiescloud.net/mn0006",
    "latitude": 44.9790183,
    "longitude": -93.18557349999999
  },
  {
    "address": "Lindstrom MN 55045",
    "name": "TRIO Wolf Creek Distance Learning Charter School",
    "parentVueUrl": "https://pvue9.region1.k12.mn.us/rt4095",
    "latitude": 45.3894083,
    "longitude": -92.8479921
  },
  {
    "address": "Larkspur CA 94939",
    "name": "Tamalpais Union High School District",
    "parentVueUrl": "https://ca-tamal-psv.edupoint.com/",
    "latitude": 37.938818,
    "longitude": -122.5344456
  },
  {
    "address": "Tucson AZ 85749",
    "name": "Tanque Verde Unified School District",
    "parentVueUrl": "https://pxp.tanq.org/",
    "latitude": 32.2932241,
    "longitude": -110.6884072
  },
  {
    "address": "Lake Havasu City AZ 86403",
    "name": "Telesis Preparatory Academy",
    "parentVueUrl": "https://synergy.telesis-academy.org/",
    "latitude": 34.4788404,
    "longitude": -114.3460283
  },
  {
    "address": "Tempe AZ 85282",
    "name": "Tempe Elementary School District",
    "parentVueUrl": "https://parentvue.tempeschools.org",
    "latitude": 33.3897576,
    "longitude": -111.9343636
  },
  {
    "address": "Tempe AZ 85283",
    "name": "Tempe Union High School District",
    "parentVueUrl": "https://az-tuhsd-psv.edupoint.com",
    "latitude": 33.3684114,
    "longitude": -111.9343636
  },
  {
    "address": "Thatcher AZ 85552",
    "name": "Thatcher Unified School District",
    "parentVueUrl": "https://vue.thatcherud.org",
    "latitude": 32.8220658,
    "longitude": -109.7948852
  },
  {
    "address": "Baltimore MD 21234",
    "name": "The Children's Guild",
    "parentVueUrl": "https://MD-TCG.Edupoint.com",
    "latitude": 39.3909858,
    "longitude": -76.5372625
  },
  {
    "address": "Alpine CA 91901",
    "name": "The Heights Charter School",
    "parentVueUrl": "https://sdhome.sdcoe.net/HeightsCharter",
    "latitude": 32.8350521,
    "longitude": -116.7664109
  },
  {
    "address": "Portland OR 97218",
    "name": "The Ivy School",
    "parentVueUrl": "https://student-odecharter.cascadetech.org/odecharter",
    "latitude": 45.5775116,
    "longitude": -122.6033377
  },
  {
    "address": "Phoenix AZ 85016",
    "name": "The Leona Group",
    "parentVueUrl": "https://leonagroup.apscc.org/",
    "latitude": 33.5106684,
    "longitude": -112.029752
  },
  {
    "address": "Flagstaff AZ 86004",
    "name": "The PEAK School",
    "parentVueUrl": "https://az-tps.edupoint.com/",
    "latitude": 35.1982836,
    "longitude": -111.651302
  },
  {
    "address": "Thief River Falls MN 56701",
    "name": "Thief River Falls Public Schools",
    "parentVueUrl": "https://rt2.region1.k12.mn.us/rt0564",
    "latitude": 48.1191353,
    "longitude": -96.18114729999999
  },
  {
    "address": "Grants Pass OR 97527",
    "name": "Three Rivers School District",
    "parentVueUrl": "https://3rivers.sis.k12.or.us/",
    "latitude": 42.4390069,
    "longitude": -123.3283925
  },
  {
    "address": "Tigard OR 97223",
    "name": "Tigard-Tualatin School District",
    "parentVueUrl": "https://student-tigardtualatin.cascadetech.org/tigardtualatin",
    "latitude": 45.4395124,
    "longitude": -122.7711943
  },
  {
    "address": "Tillamook OR 97141",
    "name": "Tillamook School District",
    "parentVueUrl": "https://student-tillamook.cascadetech.org/tillamook",
    "latitude": 45.4562158,
    "longitude": -123.8440137
  },
  {
    "address": "Tolleson AZ 85353",
    "name": "Tolleson Elementary School District #17",
    "parentVueUrl": "https://tolleson.apscc.org",
    "latitude": 33.4500425,
    "longitude": -112.259321
  },
  {
    "address": "Tolleson AZ 85353",
    "name": "Tolleson Union High School District",
    "parentVueUrl": "https://pxp.tuhsd.org",
    "latitude": 33.4500425,
    "longitude": -112.259321
  },
  {
    "address": "Tombstone AZ 85638",
    "name": "Tombstone Unified School District #1",
    "parentVueUrl": "https://tombstone.apscc.org",
    "latitude": 31.7128683,
    "longitude": -110.0675764
  },
  {
    "address": "Trenton TN 38382",
    "name": "Trenton Special School District",
    "parentVueUrl": "HTTPS://sis-psvue1.tnk12.gov/TSSD",
    "latitude": 35.9806239,
    "longitude": -88.94145379999999
  },
  {
    "address": "Sand Lake MI 49343",
    "name": "Tri-County Area Schools",
    "parentVueUrl": "https://spportal.westmihosting.com/TCAS_PXP",
    "latitude": 43.2919718,
    "longitude": -85.5178135
  },
  {
    "address": "Karlstad MN 56732",
    "name": "Tri-County Public School",
    "parentVueUrl": "https://rt3.region1.k12.mn.us/rt2358",
    "latitude": 48.5777778,
    "longitude": -96.5194444
  },
  {
    "address": "Tucson AZ 85715",
    "name": "Tucson Country Day School",
    "parentVueUrl": "https://tcds.apscc.org",
    "latitude": 32.2514545,
    "longitude": -110.8374104
  },
  {
    "address": "Tucson AZ 85719",
    "name": "Tucson Unified School District",
    "parentVueUrl": "https://student.tusd1.org",
    "latitude": 32.2438145,
    "longitude": -110.9447027
  },
  {
    "address": "Minneapolis MN 55401",
    "name": "Twin Cities International Schools",
    "parentVueUrl": "https://pvue10.region1.k12.mn.us/rt4078",
    "latitude": 44.9836543,
    "longitude": -93.2693572
  },
  {
    "address": "Ukiah OR 97880",
    "name": "Ukiah School District 80R",
    "parentVueUrl": "https://parent-ukiah.cascadetech.org/ukiah/",
    "latitude": 45.13403,
    "longitude": -118.9324815
  },
  {
    "address": "Underwood MN 56586",
    "name": "Underwood School District",
    "parentVueUrl": "https://rt1.region1.k12.mn.us/rt0550",
    "latitude": 46.2852379,
    "longitude": -95.87088519999999
  },
  {
    "address": "Tolleson AZ 85353",
    "name": "Union Elementary School District",
    "parentVueUrl": "https://uesd.apscc.org",
    "latitude": 33.4500425,
    "longitude": -112.259321
  },
  {
    "address": "Union OR 97883",
    "name": "Union School District",
    "parentVueUrl": "https://parent-union.cascadetech.org/union/",
    "latitude": 45.2084696,
    "longitude": -117.8652126
  },
  {
    "address": "Carbondale IL 62903",
    "name": "Unity Point Community Consolidated School District 140",
    "parentVueUrl": "https://il-upccsd.edupoint.com",
    "latitude": 37.6684862,
    "longitude": -89.294221
  },
  {
    "address": "Vale OR 97918",
    "name": "Vale School District",
    "parentVueUrl": "https://or-val.edupoint.com/",
    "latitude": 43.9821055,
    "longitude": -117.2382311
  },
  {
    "address": "Rainbow CA 92028",
    "name": "Vallecitos District Office",
    "parentVueUrl": "https://sdhome.sdcoe.net/Vallecitos",
    "latitude": 33.4103082,
    "longitude": -117.1478096
  },
  {
    "address": "Spencer TN 38585",
    "name": "Van Buren County Schools",
    "parentVueUrl": "HTTPS://sis-psvue1.tnk12.gov/VBCS",
    "latitude": 35.7472893,
    "longitude": -85.46664129999999
  },
  {
    "address": "Vernonia OR 97064",
    "name": "Vernonia School District",
    "parentVueUrl": "https://student-vernonia.cascadetech.org/vernonia",
    "latitude": 45.8586855,
    "longitude": -123.197782
  },
  {
    "address": "Victorville CA 92395",
    "name": "Victor Elementary School District",
    "parentVueUrl": "https://ca-vesd.edupoint.com",
    "latitude": 34.4933111,
    "longitude": -117.3028803
  },
  {
    "address": "Virginia Beach VA 23456-0038",
    "name": "Virginia Beach City Public Schools",
    "parentVueUrl": "https://studentvue.vbcps.com",
    "latitude": 36.7358202,
    "longitude": -76.02758589999999
  },
  {
    "address": "Phoenix AZ 85003",
    "name": "Vista College Prep",
    "parentVueUrl": "https://vista.apscc.org",
    "latitude": 33.4495511,
    "longitude": -112.0789355
  },
  {
    "address": "Wallowa OR 97885",
    "name": "Wallowa School District",
    "parentVueUrl": "https://or-wal.edupoint.com",
    "latitude": 45.5701445,
    "longitude": -117.5282416
  },
  {
    "address": "Indianapolis IN 46219",
    "name": "Warren Township, Metropolitan School District of",
    "parentVueUrl": "https://in-wts-psv.edupoint.com",
    "latitude": 39.7817323,
    "longitude": -86.0450839
  },
  {
    "address": "Warrenton OR 97146",
    "name": "Warrenton-Hammond School District",
    "parentVueUrl": "https://student-warrentonhammond.cascadetech.org/warrentonhammond",
    "latitude": 46.12785119999999,
    "longitude": -123.927441
  },
  {
    "address": "Boonville IN 47601",
    "name": "Warrick County School Corporation",
    "parentVueUrl": "https://synergy.warrick.k12.in.us/production",
    "latitude": 38.0492131,
    "longitude": -87.27417229999999
  },
  {
    "address": "Warroad MN 56763",
    "name": "Warroad Public Schools",
    "parentVueUrl": "https://rt3.region1.k12.mn.us/rt0690",
    "latitude": 48.9052657,
    "longitude": -95.31440409999999
  },
  {
    "address": "Hagerstown MD 21740",
    "name": "Washington County Public Schools",
    "parentVueUrl": "https://spportal.wcps.k12.md.us",
    "latitude": 39.6417629,
    "longitude": -77.71999319999999
  },
  {
    "address": "Glendale AZ 85304",
    "name": "Washington Elementary School District No. 6",
    "parentVueUrl": "https://parentvue.wesdschools.org",
    "latitude": 33.5903698,
    "longitude": -112.1728283
  },
  {
    "address": "Richfield MN 55423",
    "name": "Watershed High School",
    "parentVueUrl": "https://pvue5.region1.k12.mn.us/rt4092",
    "latitude": 44.8735964,
    "longitude": -93.2835137
  },
  {
    "address": "Waubun MN 56589",
    "name": "Waubun-Ogema-White Earth Schools #435",
    "parentVueUrl": "https://pvue10.region1.k12.mn.us/rt0435",
    "latitude": 47.1829202,
    "longitude": -95.9421182
  },
  {
    "address": "Waynesboro TN 38485",
    "name": "Wayne County Schools",
    "parentVueUrl": "https://psv-wayne.tnk12.gov/way",
    "latitude": 35.3195217,
    "longitude": -87.7622468
  },
  {
    "address": "Dresden TN 38225",
    "name": "Weakley County Schools",
    "parentVueUrl": "HTTPS://sis-psvue1.tnk12.gov/WCS",
    "latitude": 36.2914512,
    "longitude": -88.7081122
  },
  {
    "address": "Atwood TN 38220",
    "name": "West Carroll Special School District",
    "parentVueUrl": "https://psv-westcarroll.tnk12.gov/wca",
    "latitude": 35.9731207,
    "longitude": -88.6781141
  },
  {
    "address": "Barrett MN 56311",
    "name": "West Central Area Schools",
    "parentVueUrl": "https://rt4.region1.k12.mn.us/rt2342",
    "latitude": 45.9107726,
    "longitude": -95.8902664
  },
  {
    "address": "Camillus NY 13031",
    "name": "West Genesee School District",
    "parentVueUrl": "https://ny-wgen-psv.edupoint.com",
    "latitude": 43.039233,
    "longitude": -76.3040965
  },
  {
    "address": "Tualatin OR 97062",
    "name": "West Linn - Wilsonville School District",
    "parentVueUrl": "https://synergy-parstuvue.wlwv.k12.or.us",
    "latitude": 45.3611308,
    "longitude": -122.7700372
  },
  {
    "address": "Phoenix AZ 85033",
    "name": "Western School of Science and Technology",
    "parentVueUrl": "https://wsst.apscc.org/",
    "latitude": 33.4943072,
    "longitude": -112.2026347
  },
  {
    "address": "Flint MI 48504",
    "name": "Westwood Heights School District",
    "parentVueUrl": "https://studentvue.geneseeisd.org/West",
    "latitude": 43.0528038,
    "longitude": -83.75178509999999
  },
  {
    "address": "White Bear Lake MN 55110",
    "name": "White Bear Lake Area Schools",
    "parentVueUrl": "https://mn-wbl-psv.edupoint.com",
    "latitude": 45.0911599,
    "longitude": -93.01124569999999
  },
  {
    "address": "White Pigeon MI 49099",
    "name": "White Pigeon Community Schools",
    "parentVueUrl": "https://studentvue.geneseeisd.org/wpc",
    "latitude": 41.7981056,
    "longitude": -85.6433229
  },
  {
    "address": "Wichita KS 67202",
    "name": "Wichita Public Schools",
    "parentVueUrl": "https://ks-wic-psv.edupoint.com/",
    "latitude": 37.6843628,
    "longitude": -97.332753
  },
  {
    "address": "Wickenburg AZ 85390",
    "name": "Wickenburg Unified School District #9",
    "parentVueUrl": "https://az-wusd9.edupoint.com/",
    "latitude": 33.9697664,
    "longitude": -112.7301882
  },
  {
    "address": "Williamsburg VA 23187",
    "name": "Williamsburg James City County Public Schools",
    "parentVueUrl": "https://va-wjccp-psv.edupoint.com/",
    "latitude": 37.27,
    "longitude": -76.7099999
  },
  {
    "address": "Erskine MN 56535",
    "name": "Win-E-Mac School",
    "parentVueUrl": "https://rt1.region1.k12.mn.us/rt2609",
    "latitude": 47.6687457,
    "longitude": -96.0092234
  },
  {
    "address": "Winston OR 97496",
    "name": "Winston-Dillard School District",
    "parentVueUrl": "https://or-wdsd-psv.edupoint.com",
    "latitude": 43.1223383,
    "longitude": -123.4125723
  },
  {
    "address": "Woodbury MN 55125",
    "name": "Woodbury Leadership Academy",
    "parentVueUrl": "https://pvue5.region1.k12.mn.us/rt4228",
    "latitude": 44.915423,
    "longitude": -92.9475662
  },
  {
    "address": "48439",
    "name": "Woodland Park Academy",
    "parentVueUrl": "https://studentvue.geneseeisd.org/wpa",
    "latitude": 42.9362643,
    "longitude": -83.57096399999999
  },
  {
    "address": "Wyoming MI 49519",
    "name": "Wyoming Public Schools",
    "parentVueUrl": "https://spportal.westmihosting.com/wps_pxp",
    "latitude": 42.8959695,
    "longitude": -85.7205065
  },
  {
    "address": "Yuma AZ 85364",
    "name": "YPIC - Yuma Private Industry Council",
    "parentVueUrl": "https://az-ypic.edupoint.com/",
    "latitude": 32.7056541,
    "longitude": -114.678669
  },
  {
    "address": "Yamhill OR 97148",
    "name": "Yamhill Carlton School District",
    "parentVueUrl": "https://student-yamhillcarlton.cascadetech.org/yamhillcarlton",
    "latitude": 45.3415301,
    "longitude": -123.1878221
  },
  {
    "address": "Yoncalla OR 97499",
    "name": "Yoncalla School District",
    "parentVueUrl": "https://ysd.edupoint.com/",
    "latitude": 43.5984531,
    "longitude": -123.2834167
  },
  {
    "address": "Young AZ 85554",
    "name": "Young Public School",
    "parentVueUrl": "https://young.apscc.org",
    "latitude": 34.1014318,
    "longitude": -110.9637358
  },
  {
    "address": "Fort Mohave AZ 86426",
    "name": "Young Scholar's Academy",
    "parentVueUrl": "https://ysacs.edupoint.com",
    "latitude": 35.0099901,
    "longitude": -114.583658
  },
  {
    "address": "Kalamazoo MI 49009",
    "name": "Youth Advancement Academy",
    "parentVueUrl": "https://studentvue.geneseeisd.org/yaa",
    "latitude": 42.2917069,
    "longitude": -85.5872286
  },
  {
    "address": "Moorhead MN 56563",
    "name": "Youth Educational Services",
    "parentVueUrl": "https://mn0926.tiescloud.net/mn0926",
    "latitude": 46.8669339,
    "longitude": -96.7581208
  },
  {
    "address": "Yuma AZ 85364",
    "name": "Yuma School District #1",
    "parentVueUrl": "https://az-yesd-psv.edupoint.com/",
    "latitude": 32.7056541,
    "longitude": -114.678669
  },
  {
    "address": "Yuma AZ 85364-7998",
    "name": "Yuma Union High School District",
    "parentVueUrl": "https://az-yuhsd-psv.edupoint.com/",
    "latitude": 32.7056541,
    "longitude": -114.678669
  }
]
